{
"type": "FeatureCollection",
"crs": { "type": "name", "properties": { "name": "urn:ogc:def:crs:OGC:1.3:CRS84" } },
"features": [
{ "type": "Feature", "properties": { "rte": 72, "dir": 0, "rte_desc": "72-Killingsworth\/82nd Ave", "dir_desc": "To Swan Island", "type": "BUS", "stop_seq": 6950, "stop_id": 3318, "stop_name": "N Dolphin & Channel", "jurisdic": "Portland", "zipcode": "97217", "frequent": "False" }, "geometry": { "type": "Point", "coordinates": [ -122.71547536765769, 45.562672246812816 ] } },
{ "type": "Feature", "properties": { "rte": 72, "dir": 0, "rte_desc": "72-Killingsworth\/82nd Ave", "dir_desc": "To Swan Island", "type": "BUS", "stop_seq": 7000, "stop_id": 8496, "stop_name": "5500 Block N Channel Ave (Shipyards)", "jurisdic": "Portland", "zipcode": "97217", "frequent": "False" }, "geometry": { "type": "Point", "coordinates": [ -122.71886480789763, 45.562972808457936 ] } },
{ "type": "Feature", "properties": { "rte": 72, "dir": 0, "rte_desc": "72-Killingsworth\/82nd Ave", "dir_desc": "To Swan Island", "type": "BUS", "stop_seq": 7100, "stop_id": 1043, "stop_name": "N Channel Ave & Commerce", "jurisdic": "Portland", "zipcode": "97217", "frequent": "False" }, "geometry": { "type": "Point", "coordinates": [ -122.71202767363474, 45.560376352024903 ] } },
{ "type": "Feature", "properties": { "rte": 72, "dir": 0, "rte_desc": "72-Killingsworth\/82nd Ave", "dir_desc": "To Swan Island", "type": "BUS", "stop_seq": 200, "stop_id": 7920, "stop_name": "SE 82nd & Boyer Drive", "jurisdic": "Clackamas Co.", "zipcode": "97086", "frequent": "True" }, "geometry": { "type": "Point", "coordinates": [ -122.57869167935678, 45.443647947176181 ] } },
{ "type": "Feature", "properties": { "rte": 72, "dir": 0, "rte_desc": "72-Killingsworth\/82nd Ave", "dir_desc": "To Swan Island", "type": "BUS", "stop_seq": 350, "stop_id": 7968, "stop_name": "SE 82nd & Glencoe", "jurisdic": "Clackamas Co.", "zipcode": "97086", "frequent": "True" }, "geometry": { "type": "Point", "coordinates": [ -122.57884327612473, 45.449509722091669 ] } },
{ "type": "Feature", "properties": { "rte": 72, "dir": 0, "rte_desc": "72-Killingsworth\/82nd Ave", "dir_desc": "To Swan Island", "type": "BUS", "stop_seq": 400, "stop_id": 8015, "stop_name": "SE 82nd & Otty", "jurisdic": "Clackamas Co.", "zipcode": "97086", "frequent": "True" }, "geometry": { "type": "Point", "coordinates": [ -122.57884783623298, 45.451235484721309 ] } },
{ "type": "Feature", "properties": { "rte": 72, "dir": 0, "rte_desc": "72-Killingsworth\/82nd Ave", "dir_desc": "To Swan Island", "type": "BUS", "stop_seq": 850, "stop_id": 7962, "stop_name": "SE 82nd & Flavel", "jurisdic": "Portland", "zipcode": "97266", "frequent": "True" }, "geometry": { "type": "Point", "coordinates": [ -122.57893236893575, 45.468970953232521 ] } },
{ "type": "Feature", "properties": { "rte": 72, "dir": 0, "rte_desc": "72-Killingsworth\/82nd Ave", "dir_desc": "To Swan Island", "type": "BUS", "stop_seq": 1000, "stop_id": 7970, "stop_name": "SE 82nd & Glenwood", "jurisdic": "Portland", "zipcode": "97266", "frequent": "True" }, "geometry": { "type": "Point", "coordinates": [ -122.57895348179458, 45.47388487376687 ] } },
{ "type": "Feature", "properties": { "rte": 72, "dir": 0, "rte_desc": "72-Killingsworth\/82nd Ave", "dir_desc": "To Swan Island", "type": "BUS", "stop_seq": 1100, "stop_id": 8057, "stop_name": "SE 82nd & Tolman", "jurisdic": "Portland", "zipcode": "97266", "frequent": "True" }, "geometry": { "type": "Point", "coordinates": [ -122.57892918764715, 45.477536591045798 ] } },
{ "type": "Feature", "properties": { "rte": 72, "dir": 0, "rte_desc": "72-Killingsworth\/82nd Ave", "dir_desc": "To Swan Island", "type": "BUS", "stop_seq": 1150, "stop_id": 8059, "stop_name": "SE 82nd & Woodstock", "jurisdic": "Portland", "zipcode": "97266", "frequent": "True" }, "geometry": { "type": "Point", "coordinates": [ -122.57890111425861, 45.479343128810171 ] } },
{ "type": "Feature", "properties": { "rte": 72, "dir": 0, "rte_desc": "72-Killingsworth\/82nd Ave", "dir_desc": "To Swan Island", "type": "BUS", "stop_seq": 1350, "stop_id": 8029, "stop_name": "SE 82nd & Raymond Ct", "jurisdic": "Portland", "zipcode": "97266", "frequent": "True" }, "geometry": { "type": "Point", "coordinates": [ -122.57877644167627, 45.485733227626199 ] } },
{ "type": "Feature", "properties": { "rte": 72, "dir": 0, "rte_desc": "72-Killingsworth\/82nd Ave", "dir_desc": "To Swan Island", "type": "BUS", "stop_seq": 1450, "stop_id": 7984, "stop_name": "SE 82nd & Holgate", "jurisdic": "Portland", "zipcode": "97266", "frequent": "True" }, "geometry": { "type": "Point", "coordinates": [ -122.57865089589725, 45.490791435771378 ] } },
{ "type": "Feature", "properties": { "rte": 72, "dir": 0, "rte_desc": "72-Killingsworth\/82nd Ave", "dir_desc": "To Swan Island", "type": "BUS", "stop_seq": 1650, "stop_id": 8031, "stop_name": "SE 82nd & Rhone", "jurisdic": "Portland", "zipcode": "97266", "frequent": "True" }, "geometry": { "type": "Point", "coordinates": [ -122.57861793466707, 45.495329164528918 ] } },
{ "type": "Feature", "properties": { "rte": 72, "dir": 0, "rte_desc": "72-Killingsworth\/82nd Ave", "dir_desc": "To Swan Island", "type": "BUS", "stop_seq": 1750, "stop_id": 8052, "stop_name": "SE 82nd & Tibbetts", "jurisdic": "Portland", "zipcode": "97266", "frequent": "True" }, "geometry": { "type": "Point", "coordinates": [ -122.57858170996504, 45.499951554404518 ] } },
{ "type": "Feature", "properties": { "rte": 72, "dir": 0, "rte_desc": "72-Killingsworth\/82nd Ave", "dir_desc": "To Swan Island", "type": "BUS", "stop_seq": 1900, "stop_id": 7957, "stop_name": "SE 82nd & Division", "jurisdic": "Portland", "zipcode": "97266", "frequent": "True" }, "geometry": { "type": "Point", "coordinates": [ -122.57852281087858, 45.50455404997431 ] } },
{ "type": "Feature", "properties": { "rte": 72, "dir": 0, "rte_desc": "72-Killingsworth\/82nd Ave", "dir_desc": "To Swan Island", "type": "BUS", "stop_seq": 2050, "stop_id": 7979, "stop_name": "SE 82nd & Hawthorne", "jurisdic": "Portland", "zipcode": "97216", "frequent": "True" }, "geometry": { "type": "Point", "coordinates": [ -122.57853185262098, 45.51191261892501 ] } },
{ "type": "Feature", "properties": { "rte": 72, "dir": 0, "rte_desc": "72-Killingsworth\/82nd Ave", "dir_desc": "To Swan Island", "type": "BUS", "stop_seq": 2150, "stop_id": 8065, "stop_name": "SE 82nd & Yamhill", "jurisdic": "Portland", "zipcode": "97216", "frequent": "True" }, "geometry": { "type": "Point", "coordinates": [ -122.57878163759554, 45.515990655303227 ] } },
{ "type": "Feature", "properties": { "rte": 72, "dir": 0, "rte_desc": "72-Killingsworth\/82nd Ave", "dir_desc": "To Swan Island", "type": "BUS", "stop_seq": 2300, "stop_id": 7930, "stop_name": "SE 82nd & Ash", "jurisdic": "Portland", "zipcode": "97216", "frequent": "True" }, "geometry": { "type": "Point", "coordinates": [ -122.57894104454047, 45.520969088062337 ] } },
{ "type": "Feature", "properties": { "rte": 72, "dir": 0, "rte_desc": "72-Killingsworth\/82nd Ave", "dir_desc": "To Swan Island", "type": "BUS", "stop_seq": 2450, "stop_id": 7972, "stop_name": "NE 82nd & Glisan", "jurisdic": "Portland", "zipcode": "97220", "frequent": "True" }, "geometry": { "type": "Point", "coordinates": [ -122.57893977358856, 45.526660856391061 ] } },
{ "type": "Feature", "properties": { "rte": 72, "dir": 0, "rte_desc": "72-Killingsworth\/82nd Ave", "dir_desc": "To Swan Island", "type": "BUS", "stop_seq": 2550, "stop_id": 7987, "stop_name": "NE 82nd & Holladay", "jurisdic": "Portland", "zipcode": "97220", "frequent": "True" }, "geometry": { "type": "Point", "coordinates": [ -122.57890535474901, 45.529828144913942 ] } },
{ "type": "Feature", "properties": { "rte": 72, "dir": 0, "rte_desc": "72-Killingsworth\/82nd Ave", "dir_desc": "To Swan Island", "type": "BUS", "stop_seq": 2650, "stop_id": 7999, "stop_name": "NE 82nd & 82nd Ave MAX Stn\/I-84", "jurisdic": "Portland", "zipcode": "97220", "frequent": "True" }, "geometry": { "type": "Point", "coordinates": [ -122.57885237278579, 45.533613254019905 ] } },
{ "type": "Feature", "properties": { "rte": 72, "dir": 0, "rte_desc": "72-Killingsworth\/82nd Ave", "dir_desc": "To Swan Island", "type": "BUS", "stop_seq": 2700, "stop_id": 8042, "stop_name": "NE 82nd & Schuyler", "jurisdic": "Portland", "zipcode": "97220", "frequent": "True" }, "geometry": { "type": "Point", "coordinates": [ -122.57887613209684, 45.535924675317013 ] } },
{ "type": "Feature", "properties": { "rte": 72, "dir": 0, "rte_desc": "72-Killingsworth\/82nd Ave", "dir_desc": "To Swan Island", "type": "BUS", "stop_seq": 2850, "stop_id": 8033, "stop_name": "NE 82nd & Russell", "jurisdic": "Portland", "zipcode": "97220", "frequent": "True" }, "geometry": { "type": "Point", "coordinates": [ -122.57874810574313, 45.540769788590588 ] } },
{ "type": "Feature", "properties": { "rte": 72, "dir": 0, "rte_desc": "72-Killingsworth\/82nd Ave", "dir_desc": "To Swan Island", "type": "BUS", "stop_seq": 2900, "stop_id": 8001, "stop_name": "NE 82nd & Madison HS", "jurisdic": "Portland", "zipcode": "97220", "frequent": "True" }, "geometry": { "type": "Point", "coordinates": [ -122.57872912607631, 45.542839451687733 ] } },
{ "type": "Feature", "properties": { "rte": 72, "dir": 0, "rte_desc": "72-Killingsworth\/82nd Ave", "dir_desc": "To Swan Island", "type": "BUS", "stop_seq": 2950, "stop_id": 8046, "stop_name": "NE 82nd & Siskiyou", "jurisdic": "Portland", "zipcode": "97220", "frequent": "True" }, "geometry": { "type": "Point", "coordinates": [ -122.57870466286158, 45.544972301727839 ] } },
{ "type": "Feature", "properties": { "rte": 72, "dir": 0, "rte_desc": "72-Killingsworth\/82nd Ave", "dir_desc": "To Swan Island", "type": "BUS", "stop_seq": 3000, "stop_id": 7991, "stop_name": "NE 82nd & Klickitat", "jurisdic": "Portland", "zipcode": "97220", "frequent": "True" }, "geometry": { "type": "Point", "coordinates": [ -122.57866730572293, 45.546250712602045 ] } },
{ "type": "Feature", "properties": { "rte": 72, "dir": 0, "rte_desc": "72-Killingsworth\/82nd Ave", "dir_desc": "To Swan Island", "type": "BUS", "stop_seq": 3050, "stop_id": 7967, "stop_name": "NE 82nd & Fremont", "jurisdic": "Portland", "zipcode": "97220", "frequent": "True" }, "geometry": { "type": "Point", "coordinates": [ -122.57863585728724, 45.547879545859843 ] } },
{ "type": "Feature", "properties": { "rte": 72, "dir": 0, "rte_desc": "72-Killingsworth\/82nd Ave", "dir_desc": "To Swan Island", "type": "BUS", "stop_seq": 3150, "stop_id": 8039, "stop_name": "NE 82nd & Sandy", "jurisdic": "Portland", "zipcode": "97220", "frequent": "True" }, "geometry": { "type": "Point", "coordinates": [ -122.57853222779873, 45.553107247613823 ] } },
{ "type": "Feature", "properties": { "rte": 72, "dir": 0, "rte_desc": "72-Killingsworth\/82nd Ave", "dir_desc": "To Swan Island", "type": "BUS", "stop_seq": 3200, "stop_id": 8026, "stop_name": "NE 82nd & Prescott", "jurisdic": "Portland", "zipcode": "97220", "frequent": "True" }, "geometry": { "type": "Point", "coordinates": [ -122.57846581214186, 45.555338000738359 ] } },
{ "type": "Feature", "properties": { "rte": 72, "dir": 0, "rte_desc": "72-Killingsworth\/82nd Ave", "dir_desc": "To Swan Island", "type": "BUS", "stop_seq": 3400, "stop_id": 3216, "stop_name": "NE Killingsworth & 82nd", "jurisdic": "Portland", "zipcode": "97218", "frequent": "True" }, "geometry": { "type": "Point", "coordinates": [ -122.57903606125058, 45.562806933644666 ] } },
{ "type": "Feature", "properties": { "rte": 72, "dir": 0, "rte_desc": "72-Killingsworth\/82nd Ave", "dir_desc": "To Swan Island", "type": "BUS", "stop_seq": 3500, "stop_id": 3215, "stop_name": "NE Killingsworth & 75th", "jurisdic": "Portland", "zipcode": "97218", "frequent": "True" }, "geometry": { "type": "Point", "coordinates": [ -122.5856714756053, 45.562741452942888 ] } },
{ "type": "Feature", "properties": { "rte": 72, "dir": 0, "rte_desc": "72-Killingsworth\/82nd Ave", "dir_desc": "To Swan Island", "type": "BUS", "stop_seq": 3600, "stop_id": 3212, "stop_name": "NE Killingsworth & 72nd", "jurisdic": "Portland", "zipcode": "97218", "frequent": "True" }, "geometry": { "type": "Point", "coordinates": [ -122.58825828973865, 45.562775445242877 ] } },
{ "type": "Feature", "properties": { "rte": 72, "dir": 0, "rte_desc": "72-Killingsworth\/82nd Ave", "dir_desc": "To Swan Island", "type": "BUS", "stop_seq": 3900, "stop_id": 3147, "stop_name": "6300 Block NE Killingsworth", "jurisdic": "Portland", "zipcode": "97218", "frequent": "True" }, "geometry": { "type": "Point", "coordinates": [ -122.59707352228321, 45.562834188910259 ] } },
{ "type": "Feature", "properties": { "rte": 72, "dir": 0, "rte_desc": "72-Killingsworth\/82nd Ave", "dir_desc": "To Swan Island", "type": "BUS", "stop_seq": 4050, "stop_id": 3207, "stop_name": "NE Killingsworth & 54th", "jurisdic": "Portland", "zipcode": "97218", "frequent": "True" }, "geometry": { "type": "Point", "coordinates": [ -122.60704593445168, 45.562845648901309 ] } },
{ "type": "Feature", "properties": { "rte": 72, "dir": 0, "rte_desc": "72-Killingsworth\/82nd Ave", "dir_desc": "To Swan Island", "type": "BUS", "stop_seq": 4100, "stop_id": 3205, "stop_name": "NE Killingsworth & 52nd", "jurisdic": "Portland", "zipcode": "97218", "frequent": "True" }, "geometry": { "type": "Point", "coordinates": [ -122.60942645591091, 45.562845726938491 ] } },
{ "type": "Feature", "properties": { "rte": 72, "dir": 0, "rte_desc": "72-Killingsworth\/82nd Ave", "dir_desc": "To Swan Island", "type": "BUS", "stop_seq": 4150, "stop_id": 3203, "stop_name": "NE Killingsworth & 49th", "jurisdic": "Portland", "zipcode": "97218", "frequent": "True" }, "geometry": { "type": "Point", "coordinates": [ -122.61223696142706, 45.562856802652419 ] } },
{ "type": "Feature", "properties": { "rte": 72, "dir": 0, "rte_desc": "72-Killingsworth\/82nd Ave", "dir_desc": "To Swan Island", "type": "BUS", "stop_seq": 4200, "stop_id": 3201, "stop_name": "NE Killingsworth & 46th Pl", "jurisdic": "Portland", "zipcode": "97218", "frequent": "True" }, "geometry": { "type": "Point", "coordinates": [ -122.61498040513467, 45.562867445918151 ] } },
{ "type": "Feature", "properties": { "rte": 72, "dir": 0, "rte_desc": "72-Killingsworth\/82nd Ave", "dir_desc": "To Swan Island", "type": "BUS", "stop_seq": 4400, "stop_id": 3196, "stop_name": "NE Killingsworth & 36th", "jurisdic": "Portland", "zipcode": "97211", "frequent": "True" }, "geometry": { "type": "Point", "coordinates": [ -122.62647818140492, 45.562812926655219 ] } },
{ "type": "Feature", "properties": { "rte": 72, "dir": 0, "rte_desc": "72-Killingsworth\/82nd Ave", "dir_desc": "To Swan Island", "type": "BUS", "stop_seq": 4450, "stop_id": 3194, "stop_name": "NE Killingsworth & 35th", "jurisdic": "Portland", "zipcode": "97211", "frequent": "True" }, "geometry": { "type": "Point", "coordinates": [ -122.62848595911231, 45.562789167022203 ] } },
{ "type": "Feature", "properties": { "rte": 72, "dir": 0, "rte_desc": "72-Killingsworth\/82nd Ave", "dir_desc": "To Swan Island", "type": "BUS", "stop_seq": 4599, "stop_id": 3189, "stop_name": "NE Killingsworth & 31st", "jurisdic": "Portland", "zipcode": "97211", "frequent": "True" }, "geometry": { "type": "Point", "coordinates": [ -122.63374848771637, 45.562769557679879 ] } },
{ "type": "Feature", "properties": { "rte": 72, "dir": 0, "rte_desc": "72-Killingsworth\/82nd Ave", "dir_desc": "To Swan Island", "type": "BUS", "stop_seq": 4600, "stop_id": 7328, "stop_name": "NE 30th & Emerson", "jurisdic": "Portland", "zipcode": "97211", "frequent": "True" }, "geometry": { "type": "Point", "coordinates": [ -122.63494223009049, 45.561576282329575 ] } },
{ "type": "Feature", "properties": { "rte": 72, "dir": 0, "rte_desc": "72-Killingsworth\/82nd Ave", "dir_desc": "To Swan Island", "type": "BUS", "stop_seq": 4850, "stop_id": 61, "stop_name": "NE Alberta & 24th", "jurisdic": "Portland", "zipcode": "97211", "frequent": "True" }, "geometry": { "type": "Point", "coordinates": [ -122.64080506639027, 45.559116529349069 ] } },
{ "type": "Feature", "properties": { "rte": 72, "dir": 0, "rte_desc": "72-Killingsworth\/82nd Ave", "dir_desc": "To Swan Island", "type": "BUS", "stop_seq": 5050, "stop_id": 53, "stop_name": "NE Alberta & 15th", "jurisdic": "Portland", "zipcode": "97211", "frequent": "True" }, "geometry": { "type": "Point", "coordinates": [ -122.64952416354002, 45.559156799467324 ] } },
{ "type": "Feature", "properties": { "rte": 72, "dir": 0, "rte_desc": "72-Killingsworth\/82nd Ave", "dir_desc": "To Swan Island", "type": "BUS", "stop_seq": 5100, "stop_id": 51, "stop_name": "NE Alberta & 13th", "jurisdic": "Portland", "zipcode": "97211", "frequent": "True" }, "geometry": { "type": "Point", "coordinates": [ -122.65253072395208, 45.559153363138741 ] } },
{ "type": "Feature", "properties": { "rte": 72, "dir": 0, "rte_desc": "72-Killingsworth\/82nd Ave", "dir_desc": "To Swan Island", "type": "BUS", "stop_seq": 5200, "stop_id": 70, "stop_name": "NE Alberta & 9th", "jurisdic": "Portland", "zipcode": "97211", "frequent": "True" }, "geometry": { "type": "Point", "coordinates": [ -122.65645116165038, 45.559153081266338 ] } },
{ "type": "Feature", "properties": { "rte": 72, "dir": 0, "rte_desc": "72-Killingsworth\/82nd Ave", "dir_desc": "To Swan Island", "type": "BUS", "stop_seq": 5900, "stop_id": 3159, "stop_name": "N Killingsworth & Concord", "jurisdic": "Portland", "zipcode": "97217", "frequent": "True" }, "geometry": { "type": "Point", "coordinates": [ -122.68466556330696, 45.56273942168643 ] } },
{ "type": "Feature", "properties": { "rte": 72, "dir": 0, "rte_desc": "72-Killingsworth\/82nd Ave", "dir_desc": "To Swan Island", "type": "BUS", "stop_seq": 5950, "stop_id": 3163, "stop_name": "N Killingsworth & Denver", "jurisdic": "Portland", "zipcode": "97217", "frequent": "True" }, "geometry": { "type": "Point", "coordinates": [ -122.68719348557622, 45.56275415967739 ] } },
{ "type": "Feature", "properties": { "rte": 72, "dir": 0, "rte_desc": "72-Killingsworth\/82nd Ave", "dir_desc": "To Swan Island", "type": "BUS", "stop_seq": 6050, "stop_id": 3161, "stop_name": "N Killingsworth & Delaware", "jurisdic": "Portland", "zipcode": "97217", "frequent": "True" }, "geometry": { "type": "Point", "coordinates": [ -122.69241859076871, 45.562822758764881 ] } },
{ "type": "Feature", "properties": { "rte": 72, "dir": 0, "rte_desc": "72-Killingsworth\/82nd Ave", "dir_desc": "To Swan Island", "type": "BUS", "stop_seq": 6800, "stop_id": 3316, "stop_name": "N Lagoon & Ballast", "jurisdic": "Portland", "zipcode": "97217", "frequent": "False" }, "geometry": { "type": "Point", "coordinates": [ -122.70588142108608, 45.559429569527495 ] } },
{ "type": "Feature", "properties": { "rte": 72, "dir": 0, "rte_desc": "72-Killingsworth\/82nd Ave", "dir_desc": "To Swan Island", "type": "BUS", "stop_seq": 6850, "stop_id": 3317, "stop_name": "N Lagoon & Commerce", "jurisdic": "Portland", "zipcode": "97217", "frequent": "False" }, "geometry": { "type": "Point", "coordinates": [ -122.70982766045675, 45.561557327688831 ] } },
{ "type": "Feature", "properties": { "rte": 72, "dir": 0, "rte_desc": "72-Killingsworth\/82nd Ave", "dir_desc": "To Swan Island", "type": "BUS", "stop_seq": 750, "stop_id": 7953, "stop_name": "SE 82nd & Crystal Springs", "jurisdic": "Portland", "zipcode": "97266", "frequent": "True" }, "geometry": { "type": "Point", "coordinates": [ -122.5789249072777, 45.464746306085033 ] } },
{ "type": "Feature", "properties": { "rte": 72, "dir": 0, "rte_desc": "72-Killingsworth\/82nd Ave", "dir_desc": "To Swan Island", "type": "BUS", "stop_seq": 3700, "stop_id": 10601, "stop_name": "NE Killingsworth & Cully", "jurisdic": "Portland", "zipcode": "97218", "frequent": "True" }, "geometry": { "type": "Point", "coordinates": [ -122.59385933093742, 45.562796892675749 ] } },
{ "type": "Feature", "properties": { "rte": 72, "dir": 0, "rte_desc": "72-Killingsworth\/82nd Ave", "dir_desc": "To Swan Island", "type": "BUS", "stop_seq": 5300, "stop_id": 5890, "stop_name": "NE M L King & Alberta", "jurisdic": "Portland", "zipcode": "97211", "frequent": "True" }, "geometry": { "type": "Point", "coordinates": [ -122.66135854170497, 45.559574872107042 ] } },
{ "type": "Feature", "properties": { "rte": 72, "dir": 0, "rte_desc": "72-Killingsworth\/82nd Ave", "dir_desc": "To Swan Island", "type": "BUS", "stop_seq": 450, "stop_id": 8017, "stop_name": "SE 82nd & Overland", "jurisdic": "Clackamas Co.", "zipcode": "97086", "frequent": "True" }, "geometry": { "type": "Point", "coordinates": [ -122.57895986720457, 45.454633549263512 ] } },
{ "type": "Feature", "properties": { "rte": 72, "dir": 0, "rte_desc": "72-Killingsworth\/82nd Ave", "dir_desc": "To Swan Island", "type": "BUS", "stop_seq": 600, "stop_id": 7951, "stop_name": "SE 82nd & Cornwell", "jurisdic": "Clackamas Co.", "zipcode": "97086", "frequent": "True" }, "geometry": { "type": "Point", "coordinates": [ -122.5789455098428, 45.459994993613563 ] } },
{ "type": "Feature", "properties": { "rte": 72, "dir": 0, "rte_desc": "72-Killingsworth\/82nd Ave", "dir_desc": "To Swan Island", "type": "BUS", "stop_seq": 1200, "stop_id": 8027, "stop_name": "SE 82nd & Ramona", "jurisdic": "Portland", "zipcode": "97266", "frequent": "True" }, "geometry": { "type": "Point", "coordinates": [ -122.57884262030591, 45.48099911332406 ] } },
{ "type": "Feature", "properties": { "rte": 72, "dir": 0, "rte_desc": "72-Killingsworth\/82nd Ave", "dir_desc": "To Swan Island", "type": "BUS", "stop_seq": 1400, "stop_id": 8040, "stop_name": "SE 82nd & Schiller", "jurisdic": "Portland", "zipcode": "97266", "frequent": "True" }, "geometry": { "type": "Point", "coordinates": [ -122.5787005200567, 45.487863296473947 ] } },
{ "type": "Feature", "properties": { "rte": 72, "dir": 0, "rte_desc": "72-Killingsworth\/82nd Ave", "dir_desc": "To Swan Island", "type": "BUS", "stop_seq": 1550, "stop_id": 7935, "stop_name": "SE 82nd & Boise", "jurisdic": "Portland", "zipcode": "97266", "frequent": "True" }, "geometry": { "type": "Point", "coordinates": [ -122.57858033328135, 45.492424355458702 ] } },
{ "type": "Feature", "properties": { "rte": 72, "dir": 0, "rte_desc": "72-Killingsworth\/82nd Ave", "dir_desc": "To Swan Island", "type": "BUS", "stop_seq": 1800, "stop_id": 8061, "stop_name": "SE 82nd & Woodward", "jurisdic": "Portland", "zipcode": "97266", "frequent": "True" }, "geometry": { "type": "Point", "coordinates": [ -122.57857104235364, 45.501313980434105 ] } },
{ "type": "Feature", "properties": { "rte": 72, "dir": 0, "rte_desc": "72-Killingsworth\/82nd Ave", "dir_desc": "To Swan Island", "type": "BUS", "stop_seq": 2100, "stop_id": 8037, "stop_name": "SE 82nd & Salmon", "jurisdic": "Portland", "zipcode": "97216", "frequent": "True" }, "geometry": { "type": "Point", "coordinates": [ -122.57867562502049, 45.514219422380101 ] } },
{ "type": "Feature", "properties": { "rte": 72, "dir": 0, "rte_desc": "72-Killingsworth\/82nd Ave", "dir_desc": "To Swan Island", "type": "BUS", "stop_seq": 2200, "stop_id": 7928, "stop_name": "SE 82nd & Washington", "jurisdic": "Portland", "zipcode": "97216", "frequent": "True" }, "geometry": { "type": "Point", "coordinates": [ -122.57887988843373, 45.518261102306624 ] } },
{ "type": "Feature", "properties": { "rte": 72, "dir": 0, "rte_desc": "72-Killingsworth\/82nd Ave", "dir_desc": "To Swan Island", "type": "BUS", "stop_seq": 2500, "stop_id": 8014, "stop_name": "NE 82nd & Oregon", "jurisdic": "Portland", "zipcode": "97220", "frequent": "True" }, "geometry": { "type": "Point", "coordinates": [ -122.57891051799035, 45.528299112741934 ] } },
{ "type": "Feature", "properties": { "rte": 72, "dir": 0, "rte_desc": "72-Killingsworth\/82nd Ave", "dir_desc": "To Swan Island", "type": "BUS", "stop_seq": 2600, "stop_id": 8010, "stop_name": "NE 82nd & Multnomah", "jurisdic": "Portland", "zipcode": "97220", "frequent": "True" }, "geometry": { "type": "Point", "coordinates": [ -122.57890639513222, 45.531600137238129 ] } },
{ "type": "Feature", "properties": { "rte": 72, "dir": 0, "rte_desc": "72-Killingsworth\/82nd Ave", "dir_desc": "To Swan Island", "type": "BUS", "stop_seq": 4350, "stop_id": 3197, "stop_name": "NE Killingsworth & Cesar Chavez Blvd", "jurisdic": "Portland", "zipcode": "97211", "frequent": "True" }, "geometry": { "type": "Point", "coordinates": [ -122.62332179195514, 45.562822825745087 ] } },
{ "type": "Feature", "properties": { "rte": 72, "dir": 0, "rte_desc": "72-Killingsworth\/82nd Ave", "dir_desc": "To Swan Island", "type": "BUS", "stop_seq": 4500, "stop_id": 3192, "stop_name": "NE Killingsworth & 33rd", "jurisdic": "Portland", "zipcode": "97211", "frequent": "True" }, "geometry": { "type": "Point", "coordinates": [ -122.63111094479973, 45.562788293861466 ] } },
{ "type": "Feature", "properties": { "rte": 72, "dir": 0, "rte_desc": "72-Killingsworth\/82nd Ave", "dir_desc": "To Swan Island", "type": "BUS", "stop_seq": 4750, "stop_id": 64, "stop_name": "NE Alberta & 27th", "jurisdic": "Portland", "zipcode": "97211", "frequent": "True" }, "geometry": { "type": "Point", "coordinates": [ -122.63777898319782, 45.559091470144658 ] } },
{ "type": "Feature", "properties": { "rte": 72, "dir": 0, "rte_desc": "72-Killingsworth\/82nd Ave", "dir_desc": "To Swan Island", "type": "BUS", "stop_seq": 5000, "stop_id": 55, "stop_name": "NE Alberta & 18th", "jurisdic": "Portland", "zipcode": "97211", "frequent": "True" }, "geometry": { "type": "Point", "coordinates": [ -122.6466803165289, 45.559119944459404 ] } },
{ "type": "Feature", "properties": { "rte": 72, "dir": 0, "rte_desc": "72-Killingsworth\/82nd Ave", "dir_desc": "To Swan Island", "type": "BUS", "stop_seq": 5600, "stop_id": 3157, "stop_name": "N Killingsworth & Commercial", "jurisdic": "Portland", "zipcode": "97217", "frequent": "True" }, "geometry": { "type": "Point", "coordinates": [ -122.67156834246553, 45.562744580359528 ] } },
{ "type": "Feature", "properties": { "rte": 72, "dir": 0, "rte_desc": "72-Killingsworth\/82nd Ave", "dir_desc": "To Swan Island", "type": "BUS", "stop_seq": 5700, "stop_id": 3154, "stop_name": "N Killingsworth & Albina", "jurisdic": "Portland", "zipcode": "97217", "frequent": "True" }, "geometry": { "type": "Point", "coordinates": [ -122.67480361820239, 45.562740432134795 ] } },
{ "type": "Feature", "properties": { "rte": 72, "dir": 0, "rte_desc": "72-Killingsworth\/82nd Ave", "dir_desc": "To Swan Island", "type": "BUS", "stop_seq": 6000, "stop_id": 3180, "stop_name": "N Killingsworth & Omaha", "jurisdic": "Portland", "zipcode": "97217", "frequent": "True" }, "geometry": { "type": "Point", "coordinates": [ -122.69007901027071, 45.562785943932987 ] } },
{ "type": "Feature", "properties": { "rte": 72, "dir": 0, "rte_desc": "72-Killingsworth\/82nd Ave", "dir_desc": "To Swan Island", "type": "BUS", "stop_seq": 6100, "stop_id": 3167, "stop_name": "N Greeley & Willamette", "jurisdic": "Portland", "zipcode": "97217", "frequent": "True" }, "geometry": { "type": "Point", "coordinates": [ -122.69570465778021, 45.562173826147593 ] } },
{ "type": "Feature", "properties": { "rte": 72, "dir": 0, "rte_desc": "72-Killingsworth\/82nd Ave", "dir_desc": "To Swan Island", "type": "BUS", "stop_seq": 6250, "stop_id": 2161, "stop_name": "N Going & Port Center Way", "jurisdic": "Portland", "zipcode": "97217", "frequent": "True" }, "geometry": { "type": "Point", "coordinates": [ -122.69865489296903, 45.556289034600475 ] } },
{ "type": "Feature", "properties": { "rte": 72, "dir": 0, "rte_desc": "72-Killingsworth\/82nd Ave", "dir_desc": "To Swan Island", "type": "BUS", "stop_seq": 6750, "stop_id": 3315, "stop_name": "N Lagoon & Anchor", "jurisdic": "Portland", "zipcode": "97217", "frequent": "False" }, "geometry": { "type": "Point", "coordinates": [ -122.70255439119583, 45.55767964148275 ] } },
{ "type": "Feature", "properties": { "rte": 72, "dir": 0, "rte_desc": "72-Killingsworth\/82nd Ave", "dir_desc": "To Swan Island", "type": "BUS", "stop_seq": 6900, "stop_id": 3319, "stop_name": "5500 Block N Lagoon (at Gate 18)", "jurisdic": "Portland", "zipcode": "97217", "frequent": "False" }, "geometry": { "type": "Point", "coordinates": [ -122.71326697981293, 45.563435453839851 ] } },
{ "type": "Feature", "properties": { "rte": 72, "dir": 0, "rte_desc": "72-Killingsworth\/82nd Ave", "dir_desc": "To Swan Island", "type": "BUS", "stop_seq": 7050, "stop_id": 1044, "stop_name": "N Channel Ave & Dolphin", "jurisdic": "Portland", "zipcode": "97217", "frequent": "False" }, "geometry": { "type": "Point", "coordinates": [ -122.71571215025479, 45.562334861982656 ] } },
{ "type": "Feature", "properties": { "rte": 72, "dir": 0, "rte_desc": "72-Killingsworth\/82nd Ave", "dir_desc": "To Swan Island", "type": "BUS", "stop_seq": 7150, "stop_id": 1042, "stop_name": "N Channel Ave & Ballast", "jurisdic": "Portland", "zipcode": "97217", "frequent": "False" }, "geometry": { "type": "Point", "coordinates": [ -122.70763987375129, 45.558013420348004 ] } },
{ "type": "Feature", "properties": { "rte": 72, "dir": 0, "rte_desc": "72-Killingsworth\/82nd Ave", "dir_desc": "To Swan Island", "type": "BUS", "stop_seq": 7200, "stop_id": 1041, "stop_name": "N Channel Ave & Anchor", "jurisdic": "Portland", "zipcode": "97217", "frequent": "False" }, "geometry": { "type": "Point", "coordinates": [ -122.70390349044216, 45.556629386284499 ] } },
{ "type": "Feature", "properties": { "rte": 72, "dir": 0, "rte_desc": "72-Killingsworth\/82nd Ave", "dir_desc": "To Swan Island", "type": "BUS", "stop_seq": 800, "stop_id": 7993, "stop_name": "SE 82nd & Lambert", "jurisdic": "Portland", "zipcode": "97266", "frequent": "True" }, "geometry": { "type": "Point", "coordinates": [ -122.5789237016359, 45.467026740325579 ] } },
{ "type": "Feature", "properties": { "rte": 72, "dir": 0, "rte_desc": "72-Killingsworth\/82nd Ave", "dir_desc": "To Swan Island", "type": "BUS", "stop_seq": 1250, "stop_id": 7964, "stop_name": "SE 82nd & Foster", "jurisdic": "Portland", "zipcode": "97266", "frequent": "True" }, "geometry": { "type": "Point", "coordinates": [ -122.57878266661103, 45.483281015692143 ] } },
{ "type": "Feature", "properties": { "rte": 72, "dir": 0, "rte_desc": "72-Killingsworth\/82nd Ave", "dir_desc": "To Swan Island", "type": "BUS", "stop_seq": 1850, "stop_id": 7947, "stop_name": "SE 82nd & Clinton", "jurisdic": "Portland", "zipcode": "97266", "frequent": "True" }, "geometry": { "type": "Point", "coordinates": [ -122.57857305997517, 45.503151289937691 ] } },
{ "type": "Feature", "properties": { "rte": 72, "dir": 0, "rte_desc": "72-Killingsworth\/82nd Ave", "dir_desc": "To Swan Island", "type": "BUS", "stop_seq": 2250, "stop_id": 8047, "stop_name": "SE 82nd & Stark", "jurisdic": "Portland", "zipcode": "97216", "frequent": "True" }, "geometry": { "type": "Point", "coordinates": [ -122.57895000609282, 45.519471122417343 ] } },
{ "type": "Feature", "properties": { "rte": 72, "dir": 0, "rte_desc": "72-Killingsworth\/82nd Ave", "dir_desc": "To Swan Island", "type": "BUS", "stop_seq": 2800, "stop_id": 8036, "stop_name": "NE 82nd & Sacramento", "jurisdic": "Portland", "zipcode": "97220", "frequent": "True" }, "geometry": { "type": "Point", "coordinates": [ -122.57880207148931, 45.539310703143485 ] } },
{ "type": "Feature", "properties": { "rte": 72, "dir": 0, "rte_desc": "72-Killingsworth\/82nd Ave", "dir_desc": "To Swan Island", "type": "BUS", "stop_seq": 3100, "stop_id": 7933, "stop_name": "NE 82nd & Beech", "jurisdic": "Portland", "zipcode": "97220", "frequent": "True" }, "geometry": { "type": "Point", "coordinates": [ -122.57858312208495, 45.549472202667019 ] } },
{ "type": "Feature", "properties": { "rte": 72, "dir": 0, "rte_desc": "72-Killingsworth\/82nd Ave", "dir_desc": "To Swan Island", "type": "BUS", "stop_seq": 3450, "stop_id": 3149, "stop_name": "7700 Block NE Killingsworth", "jurisdic": "Portland", "zipcode": "97218", "frequent": "True" }, "geometry": { "type": "Point", "coordinates": [ -122.58209905217872, 45.562774203209138 ] } },
{ "type": "Feature", "properties": { "rte": 72, "dir": 0, "rte_desc": "72-Killingsworth\/82nd Ave", "dir_desc": "To Swan Island", "type": "BUS", "stop_seq": 3950, "stop_id": 3210, "stop_name": "NE Killingsworth & 60th", "jurisdic": "Portland", "zipcode": "97218", "frequent": "True" }, "geometry": { "type": "Point", "coordinates": [ -122.60063691123263, 45.56281857480348 ] } },
{ "type": "Feature", "properties": { "rte": 72, "dir": 0, "rte_desc": "72-Killingsworth\/82nd Ave", "dir_desc": "To Swan Island", "type": "BUS", "stop_seq": 4300, "stop_id": 3200, "stop_name": "NE Killingsworth & 42nd", "jurisdic": "Portland", "zipcode": "97218", "frequent": "True" }, "geometry": { "type": "Point", "coordinates": [ -122.61970120649738, 45.562883737835115 ] } },
{ "type": "Feature", "properties": { "rte": 72, "dir": 0, "rte_desc": "72-Killingsworth\/82nd Ave", "dir_desc": "To Swan Island", "type": "BUS", "stop_seq": 5250, "stop_id": 10184, "stop_name": "NE Alberta & 7th", "jurisdic": "Portland", "zipcode": "97211", "frequent": "True" }, "geometry": { "type": "Point", "coordinates": [ -122.65838457273523, 45.559178973620355 ] } },
{ "type": "Feature", "properties": { "rte": 72, "dir": 0, "rte_desc": "72-Killingsworth\/82nd Ave", "dir_desc": "To Swan Island", "type": "BUS", "stop_seq": 5750, "stop_id": 3174, "stop_name": "N Killingsworth & Michigan", "jurisdic": "Portland", "zipcode": "97217", "frequent": "True" }, "geometry": { "type": "Point", "coordinates": [ -122.67679941535684, 45.562720943544967 ] } },
{ "type": "Feature", "properties": { "rte": 72, "dir": 0, "rte_desc": "72-Killingsworth\/82nd Ave", "dir_desc": "To Swan Island", "type": "BUS", "stop_seq": 6150, "stop_id": 2227, "stop_name": "N Greeley & Sumner", "jurisdic": "Portland", "zipcode": "97217", "frequent": "True" }, "geometry": { "type": "Point", "coordinates": [ -122.69479557558887, 45.56027515332444 ] } },
{ "type": "Feature", "properties": { "rte": 72, "dir": 0, "rte_desc": "72-Killingsworth\/82nd Ave", "dir_desc": "To Swan Island", "type": "BUS", "stop_seq": 4900, "stop_id": 11472, "stop_name": "NE Alberta & 21st", "jurisdic": "Portland", "zipcode": "97211", "frequent": "True" }, "geometry": { "type": "Point", "coordinates": [ -122.6437453052734, 45.559109618237059 ] } },
{ "type": "Feature", "properties": { "rte": 72, "dir": 0, "rte_desc": "72-Killingsworth\/82nd Ave", "dir_desc": "To Swan Island", "type": "BUS", "stop_seq": 6200, "stop_id": 2202, "stop_name": "N Greeley & Humboldt", "jurisdic": "Portland", "zipcode": "97217", "frequent": "True" }, "geometry": { "type": "Point", "coordinates": [ -122.69374289675396, 45.558667414033245 ] } },
{ "type": "Feature", "properties": { "rte": 72, "dir": 0, "rte_desc": "72-Killingsworth\/82nd Ave", "dir_desc": "To Swan Island", "type": "BUS", "stop_seq": 650, "stop_id": 7946, "stop_name": "SE 82nd & Clatsop", "jurisdic": "Clackamas Co.", "zipcode": "97086", "frequent": "True" }, "geometry": { "type": "Point", "coordinates": [ -122.57892515251712, 45.461300658355036 ] } },
{ "type": "Feature", "properties": { "rte": 72, "dir": 0, "rte_desc": "72-Killingsworth\/82nd Ave", "dir_desc": "To Swan Island", "type": "BUS", "stop_seq": 1600, "stop_id": 7943, "stop_name": "SE 82nd & Francis", "jurisdic": "Portland", "zipcode": "97266", "frequent": "True" }, "geometry": { "type": "Point", "coordinates": [ -122.57861597018922, 45.493959024948168 ] } },
{ "type": "Feature", "properties": { "rte": 72, "dir": 0, "rte_desc": "72-Killingsworth\/82nd Ave", "dir_desc": "To Swan Island", "type": "BUS", "stop_seq": 2750, "stop_id": 8055, "stop_name": "NE 82nd & Tillamook", "jurisdic": "Portland", "zipcode": "97220", "frequent": "True" }, "geometry": { "type": "Point", "coordinates": [ -122.57885596317293, 45.537116937331994 ] } },
{ "type": "Feature", "properties": { "rte": 72, "dir": 0, "rte_desc": "72-Killingsworth\/82nd Ave", "dir_desc": "To Swan Island", "type": "BUS", "stop_seq": 3300, "stop_id": 8063, "stop_name": "NE 82nd & Wygant", "jurisdic": "Portland", "zipcode": "97220", "frequent": "True" }, "geometry": { "type": "Point", "coordinates": [ -122.57842548980668, 45.557840426620004 ] } },
{ "type": "Feature", "properties": { "rte": 72, "dir": 0, "rte_desc": "72-Killingsworth\/82nd Ave", "dir_desc": "To Swan Island", "type": "BUS", "stop_seq": 4000, "stop_id": 3209, "stop_name": "NE Killingsworth & 57th", "jurisdic": "Portland", "zipcode": "97218", "frequent": "True" }, "geometry": { "type": "Point", "coordinates": [ -122.60404544784626, 45.562847240703093 ] } },
{ "type": "Feature", "properties": { "rte": 72, "dir": 0, "rte_desc": "72-Killingsworth\/82nd Ave", "dir_desc": "To Swan Island", "type": "BUS", "stop_seq": 4700, "stop_id": 7326, "stop_name": "NE 30th & Alberta", "jurisdic": "Portland", "zipcode": "97211", "frequent": "True" }, "geometry": { "type": "Point", "coordinates": [ -122.6349735330576, 45.559233021525735 ] } },
{ "type": "Feature", "properties": { "rte": 72, "dir": 0, "rte_desc": "72-Killingsworth\/82nd Ave", "dir_desc": "To Swan Island", "type": "BUS", "stop_seq": 6350, "stop_id": 115, "stop_name": "N Anchor & Channel", "jurisdic": "Portland", "zipcode": "97217", "frequent": "True" }, "geometry": { "type": "Point", "coordinates": [ -122.70393234076533, 45.556745196024067 ] } },
{ "type": "Feature", "properties": { "rte": 72, "dir": 0, "rte_desc": "72-Killingsworth\/82nd Ave", "dir_desc": "To Swan Island", "type": "BUS", "stop_seq": 2400, "stop_id": 7955, "stop_name": "NE 82nd & Davis", "jurisdic": "Portland", "zipcode": "97220", "frequent": "True" }, "geometry": { "type": "Point", "coordinates": [ -122.57892021824611, 45.524477566789606 ] } },
{ "type": "Feature", "properties": { "rte": 72, "dir": 0, "rte_desc": "72-Killingsworth\/82nd Ave", "dir_desc": "To Swan Island", "type": "BUS", "stop_seq": 5550, "stop_id": 3184, "stop_name": "N Killingsworth & Vancouver", "jurisdic": "Portland", "zipcode": "97217", "frequent": "True" }, "geometry": { "type": "Point", "coordinates": [ -122.66836122685274, 45.56277524750309 ] } },
{ "type": "Feature", "properties": { "rte": 72, "dir": 0, "rte_desc": "72-Killingsworth\/82nd Ave", "dir_desc": "To Swan Island", "type": "BUS", "stop_seq": 75, "stop_id": 12922, "stop_name": "Clackamas Town Center Mall", "jurisdic": "Clackamas Co.", "zipcode": "97086", "frequent": "True" }, "geometry": { "type": "Point", "coordinates": [ -122.57400318580463, 45.437506594559359 ] } },
{ "type": "Feature", "properties": { "rte": 72, "dir": 0, "rte_desc": "72-Killingsworth\/82nd Ave", "dir_desc": "To Swan Island", "type": "BUS", "stop_seq": 550, "stop_id": 7995, "stop_name": "SE 82nd & Lindy", "jurisdic": "Clackamas Co.", "zipcode": "97086", "frequent": "True" }, "geometry": { "type": "Point", "coordinates": [ -122.57892958043068, 45.458737698837865 ] } },
{ "type": "Feature", "properties": { "rte": 72, "dir": 0, "rte_desc": "72-Killingsworth\/82nd Ave", "dir_desc": "To Swan Island", "type": "BUS", "stop_seq": 2000, "stop_id": 8007, "stop_name": "SE 82nd & Mill", "jurisdic": "Portland", "zipcode": "97216", "frequent": "True" }, "geometry": { "type": "Point", "coordinates": [ -122.5785361664892, 45.50996259353419 ] } },
{ "type": "Feature", "properties": { "rte": 72, "dir": 0, "rte_desc": "72-Killingsworth\/82nd Ave", "dir_desc": "To Swan Island", "type": "BUS", "stop_seq": 3350, "stop_id": 7927, "stop_name": "NE 82nd & Alberta", "jurisdic": "Portland", "zipcode": "97220", "frequent": "True" }, "geometry": { "type": "Point", "coordinates": [ -122.57842288567977, 45.559147731067696 ] } },
{ "type": "Feature", "properties": { "rte": 72, "dir": 0, "rte_desc": "72-Killingsworth\/82nd Ave", "dir_desc": "To Swan Island", "type": "BUS", "stop_seq": 1050, "stop_id": 7960, "stop_name": "SE 82nd & Duke", "jurisdic": "Portland", "zipcode": "97266", "frequent": "True" }, "geometry": { "type": "Point", "coordinates": [ -122.57896155408132, 45.475733948941119 ] } },
{ "type": "Feature", "properties": { "rte": 72, "dir": 0, "rte_desc": "72-Killingsworth\/82nd Ave", "dir_desc": "To Swan Island", "type": "BUS", "stop_seq": 5150, "stop_id": 49, "stop_name": "NE Alberta & 11th", "jurisdic": "Portland", "zipcode": "97211", "frequent": "True" }, "geometry": { "type": "Point", "coordinates": [ -122.65448455438511, 45.559165144510921 ] } },
{ "type": "Feature", "properties": { "rte": 72, "dir": 0, "rte_desc": "72-Killingsworth\/82nd Ave", "dir_desc": "To Swan Island", "type": "BUS", "stop_seq": 150, "stop_id": 7941, "stop_name": "SE 82nd & Causey", "jurisdic": "Clackamas Co.", "zipcode": "97086", "frequent": "True" }, "geometry": { "type": "Point", "coordinates": [ -122.57873625928909, 45.441122531006457 ] } },
{ "type": "Feature", "properties": { "rte": 72, "dir": 0, "rte_desc": "72-Killingsworth\/82nd Ave", "dir_desc": "To Swan Island", "type": "BUS", "stop_seq": 900, "stop_id": 7982, "stop_name": "SE 82nd & Ogden", "jurisdic": "Portland", "zipcode": "97266", "frequent": "True" }, "geometry": { "type": "Point", "coordinates": [ -122.57891297013234, 45.471093547502925 ] } },
{ "type": "Feature", "properties": { "rte": 72, "dir": 0, "rte_desc": "72-Killingsworth\/82nd Ave", "dir_desc": "To Swan Island", "type": "BUS", "stop_seq": 1700, "stop_id": 8023, "stop_name": "SE 82nd & Powell", "jurisdic": "Portland", "zipcode": "97266", "frequent": "True" }, "geometry": { "type": "Point", "coordinates": [ -122.57857101821473, 45.497822328843149 ] } },
{ "type": "Feature", "properties": { "rte": 72, "dir": 0, "rte_desc": "72-Killingsworth\/82nd Ave", "dir_desc": "To Swan Island", "type": "BUS", "stop_seq": 2350, "stop_id": 7936, "stop_name": "SE 82nd & E Burnside", "jurisdic": "Portland", "zipcode": "97216", "frequent": "True" }, "geometry": { "type": "Point", "coordinates": [ -122.57891942907176, 45.52266361381907 ] } },
{ "type": "Feature", "properties": { "rte": 72, "dir": 0, "rte_desc": "72-Killingsworth\/82nd Ave", "dir_desc": "To Swan Island", "type": "BUS", "stop_seq": 4650, "stop_id": 7331, "stop_name": "NE 30th & Sumner", "jurisdic": "Portland", "zipcode": "97211", "frequent": "True" }, "geometry": { "type": "Point", "coordinates": [ -122.63496650189033, 45.56037177727827 ] } },
{ "type": "Feature", "properties": { "rte": 72, "dir": 0, "rte_desc": "72-Killingsworth\/82nd Ave", "dir_desc": "To Swan Island", "type": "BUS", "stop_seq": 5400, "stop_id": 10957, "stop_name": "NE Killingsworth & Garfield", "jurisdic": "Portland", "zipcode": "97211", "frequent": "True" }, "geometry": { "type": "Point", "coordinates": [ -122.66249872657029, 45.56279749451253 ] } },
{ "type": "Feature", "properties": { "rte": 72, "dir": 0, "rte_desc": "72-Killingsworth\/82nd Ave", "dir_desc": "To Swan Island", "type": "BUS", "stop_seq": 300, "stop_id": 7918, "stop_name": "SE 82nd & King", "jurisdic": "Clackamas Co.", "zipcode": "97086", "frequent": "True" }, "geometry": { "type": "Point", "coordinates": [ -122.57873835241385, 45.447406357522958 ] } },
{ "type": "Feature", "properties": { "rte": 72, "dir": 0, "rte_desc": "72-Killingsworth\/82nd Ave", "dir_desc": "To Swan Island", "type": "BUS", "stop_seq": 5825, "stop_id": 3170, "stop_name": "N Killingsworth & Interstate", "jurisdic": "Portland", "zipcode": "97217", "frequent": "True" }, "geometry": { "type": "Point", "coordinates": [ -122.6819482078846, 45.562726428391109 ] } },
{ "type": "Feature", "properties": { "rte": 72, "dir": 0, "rte_desc": "72-Killingsworth\/82nd Ave", "dir_desc": "To Swan Island", "type": "BUS", "stop_seq": 50, "stop_id": 13248, "stop_name": "Clackamas Town Center Transit Center", "jurisdic": "Clackamas Co.", "zipcode": "97015", "frequent": "True" }, "geometry": { "type": "Point", "coordinates": [ -122.56870745294735, 45.435669419483041 ] } },
{ "type": "Feature", "properties": { "rte": 72, "dir": 0, "rte_desc": "72-Killingsworth\/82nd Ave", "dir_desc": "To Swan Island", "type": "BUS", "stop_seq": 1950, "stop_id": 12755, "stop_name": "SE 82nd & Harrison", "jurisdic": "Portland", "zipcode": "97216", "frequent": "True" }, "geometry": { "type": "Point", "coordinates": [ -122.57856693803522, 45.508137135054938 ] } },
{ "type": "Feature", "properties": { "rte": 72, "dir": 1, "rte_desc": "72-Killingsworth\/82nd Ave", "dir_desc": "To Clackamas Town Center", "type": "BUS", "stop_seq": 700, "stop_id": 115, "stop_name": "N Anchor & Channel", "jurisdic": "Portland", "zipcode": "97217", "frequent": "True" }, "geometry": { "type": "Point", "coordinates": [ -122.70393234076533, 45.556745196024067 ] } },
{ "type": "Feature", "properties": { "rte": 72, "dir": 1, "rte_desc": "72-Killingsworth\/82nd Ave", "dir_desc": "To Clackamas Town Center", "type": "BUS", "stop_seq": 850, "stop_id": 2195, "stop_name": "N Greeley & Going Overpass", "jurisdic": "Portland", "zipcode": "97217", "frequent": "True" }, "geometry": { "type": "Point", "coordinates": [ -122.69230792305461, 45.555588671703788 ] } },
{ "type": "Feature", "properties": { "rte": 72, "dir": 1, "rte_desc": "72-Killingsworth\/82nd Ave", "dir_desc": "To Clackamas Town Center", "type": "BUS", "stop_seq": 950, "stop_id": 2201, "stop_name": "N Greeley & Humboldt", "jurisdic": "Portland", "zipcode": "97217", "frequent": "True" }, "geometry": { "type": "Point", "coordinates": [ -122.69353306619102, 45.558733359922101 ] } },
{ "type": "Feature", "properties": { "rte": 72, "dir": 1, "rte_desc": "72-Killingsworth\/82nd Ave", "dir_desc": "To Clackamas Town Center", "type": "BUS", "stop_seq": 1150, "stop_id": 3179, "stop_name": "N Killingsworth & Gay Ave", "jurisdic": "Portland", "zipcode": "97217", "frequent": "True" }, "geometry": { "type": "Point", "coordinates": [ -122.69013218746296, 45.562677298100574 ] } },
{ "type": "Feature", "properties": { "rte": 72, "dir": 1, "rte_desc": "72-Killingsworth\/82nd Ave", "dir_desc": "To Clackamas Town Center", "type": "BUS", "stop_seq": 1200, "stop_id": 3162, "stop_name": "N Killingsworth & Denver", "jurisdic": "Portland", "zipcode": "97217", "frequent": "True" }, "geometry": { "type": "Point", "coordinates": [ -122.68767546130339, 45.562629157418669 ] } },
{ "type": "Feature", "properties": { "rte": 72, "dir": 1, "rte_desc": "72-Killingsworth\/82nd Ave", "dir_desc": "To Clackamas Town Center", "type": "BUS", "stop_seq": 1300, "stop_id": 3169, "stop_name": "N Killingsworth & Interstate", "jurisdic": "Portland", "zipcode": "97217", "frequent": "True" }, "geometry": { "type": "Point", "coordinates": [ -122.68167960023112, 45.562592682040119 ] } },
{ "type": "Feature", "properties": { "rte": 72, "dir": 1, "rte_desc": "72-Killingsworth\/82nd Ave", "dir_desc": "To Clackamas Town Center", "type": "BUS", "stop_seq": 1550, "stop_id": 3156, "stop_name": "N Killingsworth & Commercial", "jurisdic": "Portland", "zipcode": "97217", "frequent": "True" }, "geometry": { "type": "Point", "coordinates": [ -122.67135691776969, 45.562656033925791 ] } },
{ "type": "Feature", "properties": { "rte": 72, "dir": 1, "rte_desc": "72-Killingsworth\/82nd Ave", "dir_desc": "To Clackamas Town Center", "type": "BUS", "stop_seq": 1600, "stop_id": 3183, "stop_name": "N Killingsworth & Vancouver", "jurisdic": "Portland", "zipcode": "97217", "frequent": "True" }, "geometry": { "type": "Point", "coordinates": [ -122.6689434569968, 45.56264922157559 ] } },
{ "type": "Feature", "properties": { "rte": 72, "dir": 1, "rte_desc": "72-Killingsworth\/82nd Ave", "dir_desc": "To Clackamas Town Center", "type": "BUS", "stop_seq": 1800, "stop_id": 5927, "stop_name": "NE M L King & Killingsworth", "jurisdic": "Portland", "zipcode": "97211", "frequent": "True" }, "geometry": { "type": "Point", "coordinates": [ -122.66157116952907, 45.562345792186889 ] } },
{ "type": "Feature", "properties": { "rte": 72, "dir": 1, "rte_desc": "72-Killingsworth\/82nd Ave", "dir_desc": "To Clackamas Town Center", "type": "BUS", "stop_seq": 2050, "stop_id": 48, "stop_name": "NE Alberta & 11th", "jurisdic": "Portland", "zipcode": "97211", "frequent": "True" }, "geometry": { "type": "Point", "coordinates": [ -122.65473647512754, 45.559046005665664 ] } },
{ "type": "Feature", "properties": { "rte": 72, "dir": 1, "rte_desc": "72-Killingsworth\/82nd Ave", "dir_desc": "To Clackamas Town Center", "type": "BUS", "stop_seq": 2400, "stop_id": 63, "stop_name": "NE Alberta & 27th", "jurisdic": "Portland", "zipcode": "97211", "frequent": "True" }, "geometry": { "type": "Point", "coordinates": [ -122.63799731829344, 45.559003645795862 ] } },
{ "type": "Feature", "properties": { "rte": 72, "dir": 1, "rte_desc": "72-Killingsworth\/82nd Ave", "dir_desc": "To Clackamas Town Center", "type": "BUS", "stop_seq": 2525, "stop_id": 7327, "stop_name": "NE 30th & Emerson", "jurisdic": "Portland", "zipcode": "97211", "frequent": "True" }, "geometry": { "type": "Point", "coordinates": [ -122.63479899085702, 45.561414854727261 ] } },
{ "type": "Feature", "properties": { "rte": 72, "dir": 1, "rte_desc": "72-Killingsworth\/82nd Ave", "dir_desc": "To Clackamas Town Center", "type": "BUS", "stop_seq": 2550, "stop_id": 7329, "stop_name": "NE 30th & Killingsworth", "jurisdic": "Portland", "zipcode": "97211", "frequent": "True" }, "geometry": { "type": "Point", "coordinates": [ -122.63477985134227, 45.562623039374465 ] } },
{ "type": "Feature", "properties": { "rte": 72, "dir": 1, "rte_desc": "72-Killingsworth\/82nd Ave", "dir_desc": "To Clackamas Town Center", "type": "BUS", "stop_seq": 2600, "stop_id": 3190, "stop_name": "NE Killingsworth & 32nd", "jurisdic": "Portland", "zipcode": "97211", "frequent": "True" }, "geometry": { "type": "Point", "coordinates": [ -122.63288615036372, 45.562651546236779 ] } },
{ "type": "Feature", "properties": { "rte": 72, "dir": 1, "rte_desc": "72-Killingsworth\/82nd Ave", "dir_desc": "To Clackamas Town Center", "type": "BUS", "stop_seq": 2650, "stop_id": 3191, "stop_name": "NE Killingsworth & 33rd", "jurisdic": "Portland", "zipcode": "97211", "frequent": "True" }, "geometry": { "type": "Point", "coordinates": [ -122.63033202575615, 45.562658899516677 ] } },
{ "type": "Feature", "properties": { "rte": 72, "dir": 1, "rte_desc": "72-Killingsworth\/82nd Ave", "dir_desc": "To Clackamas Town Center", "type": "BUS", "stop_seq": 2700, "stop_id": 3193, "stop_name": "NE Killingsworth & 35th", "jurisdic": "Portland", "zipcode": "97211", "frequent": "True" }, "geometry": { "type": "Point", "coordinates": [ -122.62878525634753, 45.562669930698732 ] } },
{ "type": "Feature", "properties": { "rte": 72, "dir": 1, "rte_desc": "72-Killingsworth\/82nd Ave", "dir_desc": "To Clackamas Town Center", "type": "BUS", "stop_seq": 2850, "stop_id": 3199, "stop_name": "NE Killingsworth & 42nd", "jurisdic": "Portland", "zipcode": "97218", "frequent": "True" }, "geometry": { "type": "Point", "coordinates": [ -122.61995490454343, 45.562695122664856 ] } },
{ "type": "Feature", "properties": { "rte": 72, "dir": 1, "rte_desc": "72-Killingsworth\/82nd Ave", "dir_desc": "To Clackamas Town Center", "type": "BUS", "stop_seq": 2900, "stop_id": 3144, "stop_name": "4500 Block NE Killingsworth", "jurisdic": "Portland", "zipcode": "97218", "frequent": "True" }, "geometry": { "type": "Point", "coordinates": [ -122.6158829352691, 45.562696623315269 ] } },
{ "type": "Feature", "properties": { "rte": 72, "dir": 1, "rte_desc": "72-Killingsworth\/82nd Ave", "dir_desc": "To Clackamas Town Center", "type": "BUS", "stop_seq": 2950, "stop_id": 3202, "stop_name": "NE Killingsworth & 49th", "jurisdic": "Portland", "zipcode": "97218", "frequent": "True" }, "geometry": { "type": "Point", "coordinates": [ -122.61164605553759, 45.562673327258423 ] } },
{ "type": "Feature", "properties": { "rte": 72, "dir": 1, "rte_desc": "72-Killingsworth\/82nd Ave", "dir_desc": "To Clackamas Town Center", "type": "BUS", "stop_seq": 3000, "stop_id": 3204, "stop_name": "NE Killingsworth & 52nd", "jurisdic": "Portland", "zipcode": "97218", "frequent": "True" }, "geometry": { "type": "Point", "coordinates": [ -122.60922301985519, 45.562658723413612 ] } },
{ "type": "Feature", "properties": { "rte": 72, "dir": 1, "rte_desc": "72-Killingsworth\/82nd Ave", "dir_desc": "To Clackamas Town Center", "type": "BUS", "stop_seq": 3100, "stop_id": 3208, "stop_name": "NE Killingsworth & 55th", "jurisdic": "Portland", "zipcode": "97218", "frequent": "True" }, "geometry": { "type": "Point", "coordinates": [ -122.60661183938261, 45.562646068043989 ] } },
{ "type": "Feature", "properties": { "rte": 72, "dir": 1, "rte_desc": "72-Killingsworth\/82nd Ave", "dir_desc": "To Clackamas Town Center", "type": "BUS", "stop_seq": 3150, "stop_id": 3145, "stop_name": "5700 Block NE Killingsworth", "jurisdic": "Portland", "zipcode": "97218", "frequent": "True" }, "geometry": { "type": "Point", "coordinates": [ -122.60371140689098, 45.562652454120553 ] } },
{ "type": "Feature", "properties": { "rte": 72, "dir": 1, "rte_desc": "72-Killingsworth\/82nd Ave", "dir_desc": "To Clackamas Town Center", "type": "BUS", "stop_seq": 3250, "stop_id": 3148, "stop_name": "NE Killingsworth & 64th", "jurisdic": "Portland", "zipcode": "97218", "frequent": "True" }, "geometry": { "type": "Point", "coordinates": [ -122.59721164895622, 45.562630639555749 ] } },
{ "type": "Feature", "properties": { "rte": 72, "dir": 1, "rte_desc": "72-Killingsworth\/82nd Ave", "dir_desc": "To Clackamas Town Center", "type": "BUS", "stop_seq": 3400, "stop_id": 3211, "stop_name": "NE Killingsworth & 72nd", "jurisdic": "Portland", "zipcode": "97218", "frequent": "True" }, "geometry": { "type": "Point", "coordinates": [ -122.58812595531857, 45.562543594511659 ] } },
{ "type": "Feature", "properties": { "rte": 72, "dir": 1, "rte_desc": "72-Killingsworth\/82nd Ave", "dir_desc": "To Clackamas Town Center", "type": "BUS", "stop_seq": 3500, "stop_id": 3186, "stop_name": "7600 Block NE Killingsworth", "jurisdic": "Portland", "zipcode": "97218", "frequent": "True" }, "geometry": { "type": "Point", "coordinates": [ -122.58286474855487, 45.56254358186186 ] } },
{ "type": "Feature", "properties": { "rte": 72, "dir": 1, "rte_desc": "72-Killingsworth\/82nd Ave", "dir_desc": "To Clackamas Town Center", "type": "BUS", "stop_seq": 3550, "stop_id": 3185, "stop_name": "8100 Block NE Killingsworth", "jurisdic": "Portland", "zipcode": "97218", "frequent": "True" }, "geometry": { "type": "Point", "coordinates": [ -122.57961519223693, 45.562544719541258 ] } },
{ "type": "Feature", "properties": { "rte": 72, "dir": 1, "rte_desc": "72-Killingsworth\/82nd Ave", "dir_desc": "To Clackamas Town Center", "type": "BUS", "stop_seq": 3575, "stop_id": 8889, "stop_name": "NE 82nd & Webster", "jurisdic": "Portland", "zipcode": "97220", "frequent": "True" }, "geometry": { "type": "Point", "coordinates": [ -122.57865092455978, 45.559871922794528 ] } },
{ "type": "Feature", "properties": { "rte": 72, "dir": 1, "rte_desc": "72-Killingsworth\/82nd Ave", "dir_desc": "To Clackamas Town Center", "type": "BUS", "stop_seq": 3600, "stop_id": 8064, "stop_name": "NE 82nd & Wygant", "jurisdic": "Portland", "zipcode": "97220", "frequent": "True" }, "geometry": { "type": "Point", "coordinates": [ -122.57870038089089, 45.558299802275691 ] } },
{ "type": "Feature", "properties": { "rte": 72, "dir": 1, "rte_desc": "72-Killingsworth\/82nd Ave", "dir_desc": "To Clackamas Town Center", "type": "BUS", "stop_seq": 3650, "stop_id": 8025, "stop_name": "NE 82nd & Prescott", "jurisdic": "Portland", "zipcode": "97220", "frequent": "True" }, "geometry": { "type": "Point", "coordinates": [ -122.57874017077137, 45.554997276087313 ] } },
{ "type": "Feature", "properties": { "rte": 72, "dir": 1, "rte_desc": "72-Killingsworth\/82nd Ave", "dir_desc": "To Clackamas Town Center", "type": "BUS", "stop_seq": 3700, "stop_id": 8038, "stop_name": "NE 82nd & Sandy", "jurisdic": "Portland", "zipcode": "97220", "frequent": "True" }, "geometry": { "type": "Point", "coordinates": [ -122.57880186956253, 45.552700433790392 ] } },
{ "type": "Feature", "properties": { "rte": 72, "dir": 1, "rte_desc": "72-Killingsworth\/82nd Ave", "dir_desc": "To Clackamas Town Center", "type": "BUS", "stop_seq": 3750, "stop_id": 7934, "stop_name": "NE 82nd & Beech", "jurisdic": "Portland", "zipcode": "97220", "frequent": "True" }, "geometry": { "type": "Point", "coordinates": [ -122.5788220516817, 45.549734296099018 ] } },
{ "type": "Feature", "properties": { "rte": 72, "dir": 1, "rte_desc": "72-Killingsworth\/82nd Ave", "dir_desc": "To Clackamas Town Center", "type": "BUS", "stop_seq": 3950, "stop_id": 8002, "stop_name": "NE 82nd & Madison HS", "jurisdic": "Portland", "zipcode": "97220", "frequent": "True" }, "geometry": { "type": "Point", "coordinates": [ -122.57897799341931, 45.542326514203801 ] } },
{ "type": "Feature", "properties": { "rte": 72, "dir": 1, "rte_desc": "72-Killingsworth\/82nd Ave", "dir_desc": "To Clackamas Town Center", "type": "BUS", "stop_seq": 4000, "stop_id": 8034, "stop_name": "NE 82nd & Russell", "jurisdic": "Portland", "zipcode": "97220", "frequent": "True" }, "geometry": { "type": "Point", "coordinates": [ -122.57901250642793, 45.540846051656281 ] } },
{ "type": "Feature", "properties": { "rte": 72, "dir": 1, "rte_desc": "72-Killingsworth\/82nd Ave", "dir_desc": "To Clackamas Town Center", "type": "BUS", "stop_seq": 4100, "stop_id": 8056, "stop_name": "NE 82nd & Tillamook", "jurisdic": "Portland", "zipcode": "97220", "frequent": "True" }, "geometry": { "type": "Point", "coordinates": [ -122.57907495668938, 45.537402433526509 ] } },
{ "type": "Feature", "properties": { "rte": 72, "dir": 1, "rte_desc": "72-Killingsworth\/82nd Ave", "dir_desc": "To Clackamas Town Center", "type": "BUS", "stop_seq": 4150, "stop_id": 8043, "stop_name": "NE 82nd & Schuyler", "jurisdic": "Portland", "zipcode": "97213", "frequent": "True" }, "geometry": { "type": "Point", "coordinates": [ -122.57909512472699, 45.535889188005548 ] } },
{ "type": "Feature", "properties": { "rte": 72, "dir": 1, "rte_desc": "72-Killingsworth\/82nd Ave", "dir_desc": "To Clackamas Town Center", "type": "BUS", "stop_seq": 4250, "stop_id": 7978, "stop_name": "NE 82nd & Hassalo", "jurisdic": "Portland", "zipcode": "97220", "frequent": "True" }, "geometry": { "type": "Point", "coordinates": [ -122.57915124115829, 45.530994457225589 ] } },
{ "type": "Feature", "properties": { "rte": 72, "dir": 1, "rte_desc": "72-Killingsworth\/82nd Ave", "dir_desc": "To Clackamas Town Center", "type": "BUS", "stop_seq": 4350, "stop_id": 7973, "stop_name": "NE 82nd & Glisan", "jurisdic": "Portland", "zipcode": "97220", "frequent": "True" }, "geometry": { "type": "Point", "coordinates": [ -122.57917981566044, 45.526762823094224 ] } },
{ "type": "Feature", "properties": { "rte": 72, "dir": 1, "rte_desc": "72-Killingsworth\/82nd Ave", "dir_desc": "To Clackamas Town Center", "type": "BUS", "stop_seq": 4400, "stop_id": 7956, "stop_name": "NE 82nd & Davis", "jurisdic": "Portland", "zipcode": "97220", "frequent": "True" }, "geometry": { "type": "Point", "coordinates": [ -122.57918703742942, 45.524704315644193 ] } },
{ "type": "Feature", "properties": { "rte": 72, "dir": 1, "rte_desc": "72-Killingsworth\/82nd Ave", "dir_desc": "To Clackamas Town Center", "type": "BUS", "stop_seq": 4500, "stop_id": 7931, "stop_name": "SE 82nd & Ash", "jurisdic": "Portland", "zipcode": "97216", "frequent": "True" }, "geometry": { "type": "Point", "coordinates": [ -122.57918101771442, 45.520881649364519 ] } },
{ "type": "Feature", "properties": { "rte": 72, "dir": 1, "rte_desc": "72-Killingsworth\/82nd Ave", "dir_desc": "To Clackamas Town Center", "type": "BUS", "stop_seq": 4800, "stop_id": 7980, "stop_name": "SE 82nd & Hawthorne", "jurisdic": "Portland", "zipcode": "97216", "frequent": "True" }, "geometry": { "type": "Point", "coordinates": [ -122.57882669234785, 45.512448654402753 ] } },
{ "type": "Feature", "properties": { "rte": 72, "dir": 1, "rte_desc": "72-Killingsworth\/82nd Ave", "dir_desc": "To Clackamas Town Center", "type": "BUS", "stop_seq": 4950, "stop_id": 7958, "stop_name": "SE 82nd & Division", "jurisdic": "Portland", "zipcode": "97206", "frequent": "True" }, "geometry": { "type": "Point", "coordinates": [ -122.57879451541338, 45.505068609554833 ] } },
{ "type": "Feature", "properties": { "rte": 72, "dir": 1, "rte_desc": "72-Killingsworth\/82nd Ave", "dir_desc": "To Clackamas Town Center", "type": "BUS", "stop_seq": 5000, "stop_id": 7948, "stop_name": "SE 82nd & Clinton", "jurisdic": "Portland", "zipcode": "97266", "frequent": "True" }, "geometry": { "type": "Point", "coordinates": [ -122.57880186855932, 45.503550381168509 ] } },
{ "type": "Feature", "properties": { "rte": 72, "dir": 1, "rte_desc": "72-Killingsworth\/82nd Ave", "dir_desc": "To Clackamas Town Center", "type": "BUS", "stop_seq": 5100, "stop_id": 8053, "stop_name": "SE 82nd & Tibbetts", "jurisdic": "Portland", "zipcode": "97266", "frequent": "True" }, "geometry": { "type": "Point", "coordinates": [ -122.57883316188888, 45.500180687972644 ] } },
{ "type": "Feature", "properties": { "rte": 72, "dir": 1, "rte_desc": "72-Killingsworth\/82nd Ave", "dir_desc": "To Clackamas Town Center", "type": "BUS", "stop_seq": 5275, "stop_id": 8237, "stop_name": "SE 82nd & Boise", "jurisdic": "Portland", "zipcode": "97266", "frequent": "True" }, "geometry": { "type": "Point", "coordinates": [ -122.57891152236381, 45.492165591840546 ] } },
{ "type": "Feature", "properties": { "rte": 72, "dir": 1, "rte_desc": "72-Killingsworth\/82nd Ave", "dir_desc": "To Clackamas Town Center", "type": "BUS", "stop_seq": 5350, "stop_id": 8041, "stop_name": "SE 82nd & Schiller", "jurisdic": "Portland", "zipcode": "97266", "frequent": "True" }, "geometry": { "type": "Point", "coordinates": [ -122.57895622630211, 45.488081478987326 ] } },
{ "type": "Feature", "properties": { "rte": 72, "dir": 1, "rte_desc": "72-Killingsworth\/82nd Ave", "dir_desc": "To Clackamas Town Center", "type": "BUS", "stop_seq": 5500, "stop_id": 7965, "stop_name": "SE 82nd & Insley", "jurisdic": "Portland", "zipcode": "97266", "frequent": "True" }, "geometry": { "type": "Point", "coordinates": [ -122.57909714849379, 45.48362227057622 ] } },
{ "type": "Feature", "properties": { "rte": 72, "dir": 1, "rte_desc": "72-Killingsworth\/82nd Ave", "dir_desc": "To Clackamas Town Center", "type": "BUS", "stop_seq": 5600, "stop_id": 8060, "stop_name": "SE 82nd & Woodstock", "jurisdic": "Portland", "zipcode": "97266", "frequent": "True" }, "geometry": { "type": "Point", "coordinates": [ -122.5791231144708, 45.479685279475433 ] } },
{ "type": "Feature", "properties": { "rte": 72, "dir": 1, "rte_desc": "72-Killingsworth\/82nd Ave", "dir_desc": "To Clackamas Town Center", "type": "BUS", "stop_seq": 5800, "stop_id": 8013, "stop_name": "SE 82nd & Ogden", "jurisdic": "Portland", "zipcode": "97266", "frequent": "True" }, "geometry": { "type": "Point", "coordinates": [ -122.57917343683623, 45.471083910860166 ] } },
{ "type": "Feature", "properties": { "rte": 72, "dir": 1, "rte_desc": "72-Killingsworth\/82nd Ave", "dir_desc": "To Clackamas Town Center", "type": "BUS", "stop_seq": 5900, "stop_id": 7994, "stop_name": "SE 82nd & Lambert", "jurisdic": "Portland", "zipcode": "97266", "frequent": "True" }, "geometry": { "type": "Point", "coordinates": [ -122.57917246431555, 45.467020800797492 ] } },
{ "type": "Feature", "properties": { "rte": 72, "dir": 1, "rte_desc": "72-Killingsworth\/82nd Ave", "dir_desc": "To Clackamas Town Center", "type": "BUS", "stop_seq": 6025, "stop_id": 7945, "stop_name": "SE 82nd & Clatsop", "jurisdic": "Portland", "zipcode": "97206", "frequent": "True" }, "geometry": { "type": "Point", "coordinates": [ -122.57915939531446, 45.461642136683395 ] } },
{ "type": "Feature", "properties": { "rte": 72, "dir": 1, "rte_desc": "72-Killingsworth\/82nd Ave", "dir_desc": "To Clackamas Town Center", "type": "BUS", "stop_seq": 6150, "stop_id": 7988, "stop_name": "SE 82nd & Johnson Creek", "jurisdic": "Clackamas Co.", "zipcode": "97086", "frequent": "True" }, "geometry": { "type": "Point", "coordinates": [ -122.57926878953623, 45.456409012986484 ] } },
{ "type": "Feature", "properties": { "rte": 72, "dir": 1, "rte_desc": "72-Killingsworth\/82nd Ave", "dir_desc": "To Clackamas Town Center", "type": "BUS", "stop_seq": 6300, "stop_id": 7969, "stop_name": "SE 82nd & Glencoe", "jurisdic": "Clackamas Co.", "zipcode": "97086", "frequent": "True" }, "geometry": { "type": "Point", "coordinates": [ -122.57913399681048, 45.449226006771582 ] } },
{ "type": "Feature", "properties": { "rte": 72, "dir": 1, "rte_desc": "72-Killingsworth\/82nd Ave", "dir_desc": "To Clackamas Town Center", "type": "BUS", "stop_seq": 6400, "stop_id": 7921, "stop_name": "SE 82nd & Boyer Drive", "jurisdic": "Clackamas Co.", "zipcode": "97086", "frequent": "True" }, "geometry": { "type": "Point", "coordinates": [ -122.57906846007597, 45.444219805085801 ] } },
{ "type": "Feature", "properties": { "rte": 72, "dir": 1, "rte_desc": "72-Killingsworth\/82nd Ave", "dir_desc": "To Clackamas Town Center", "type": "BUS", "stop_seq": 6450, "stop_id": 7942, "stop_name": "SE 82nd & Causey", "jurisdic": "Clackamas Co.", "zipcode": "97086", "frequent": "True" }, "geometry": { "type": "Point", "coordinates": [ -122.57910865806383, 45.441552353548587 ] } },
{ "type": "Feature", "properties": { "rte": 72, "dir": 1, "rte_desc": "72-Killingsworth\/82nd Ave", "dir_desc": "To Clackamas Town Center", "type": "BUS", "stop_seq": 3300, "stop_id": 10600, "stop_name": "NE Killingsworth & Cully", "jurisdic": "Portland", "zipcode": "97218", "frequent": "True" }, "geometry": { "type": "Point", "coordinates": [ -122.59387702769244, 45.562626008079533 ] } },
{ "type": "Feature", "properties": { "rte": 72, "dir": 1, "rte_desc": "72-Killingsworth\/82nd Ave", "dir_desc": "To Clackamas Town Center", "type": "BUS", "stop_seq": 2500, "stop_id": 7330, "stop_name": "NE 30th & Sumner", "jurisdic": "Portland", "zipcode": "97211", "frequent": "True" }, "geometry": { "type": "Point", "coordinates": [ -122.63480008936888, 45.560170312028717 ] } },
{ "type": "Feature", "properties": { "rte": 72, "dir": 1, "rte_desc": "72-Killingsworth\/82nd Ave", "dir_desc": "To Clackamas Town Center", "type": "BUS", "stop_seq": 3800, "stop_id": 7966, "stop_name": "NE 82nd & Fremont", "jurisdic": "Portland", "zipcode": "97220", "frequent": "True" }, "geometry": { "type": "Point", "coordinates": [ -122.57886219650236, 45.548346199939722 ] } },
{ "type": "Feature", "properties": { "rte": 72, "dir": 1, "rte_desc": "72-Killingsworth\/82nd Ave", "dir_desc": "To Clackamas Town Center", "type": "BUS", "stop_seq": 3900, "stop_id": 8045, "stop_name": "NE 82nd & Siskiyou", "jurisdic": "Portland", "zipcode": "97220", "frequent": "True" }, "geometry": { "type": "Point", "coordinates": [ -122.57892659158658, 45.544691578176007 ] } },
{ "type": "Feature", "properties": { "rte": 72, "dir": 1, "rte_desc": "72-Killingsworth\/82nd Ave", "dir_desc": "To Clackamas Town Center", "type": "BUS", "stop_seq": 4050, "stop_id": 8035, "stop_name": "NE 82nd & Thompson", "jurisdic": "Portland", "zipcode": "97220", "frequent": "True" }, "geometry": { "type": "Point", "coordinates": [ -122.57904305761934, 45.538840548867917 ] } },
{ "type": "Feature", "properties": { "rte": 72, "dir": 1, "rte_desc": "72-Killingsworth\/82nd Ave", "dir_desc": "To Clackamas Town Center", "type": "BUS", "stop_seq": 4200, "stop_id": 8000, "stop_name": "NE 82nd & 82nd Ave MAX Stn\/I-84", "jurisdic": "Portland", "zipcode": "97213", "frequent": "True" }, "geometry": { "type": "Point", "coordinates": [ -122.57919065351138, 45.533493020060504 ] } },
{ "type": "Feature", "properties": { "rte": 72, "dir": 1, "rte_desc": "72-Killingsworth\/82nd Ave", "dir_desc": "To Clackamas Town Center", "type": "BUS", "stop_seq": 4300, "stop_id": 7932, "stop_name": "NE 82nd & Pacific", "jurisdic": "Portland", "zipcode": "97213", "frequent": "True" }, "geometry": { "type": "Point", "coordinates": [ -122.57916642964781, 45.529034120026452 ] } },
{ "type": "Feature", "properties": { "rte": 72, "dir": 1, "rte_desc": "72-Killingsworth\/82nd Ave", "dir_desc": "To Clackamas Town Center", "type": "BUS", "stop_seq": 4450, "stop_id": 7937, "stop_name": "NE 82nd & E Burnside", "jurisdic": "Portland", "zipcode": "97213", "frequent": "True" }, "geometry": { "type": "Point", "coordinates": [ -122.57920080407834, 45.522920719884404 ] } },
{ "type": "Feature", "properties": { "rte": 72, "dir": 1, "rte_desc": "72-Killingsworth\/82nd Ave", "dir_desc": "To Clackamas Town Center", "type": "BUS", "stop_seq": 4600, "stop_id": 7929, "stop_name": "SE 82nd & Alder", "jurisdic": "Portland", "zipcode": "97216", "frequent": "True" }, "geometry": { "type": "Point", "coordinates": [ -122.57911486667113, 45.517790611400507 ] } },
{ "type": "Feature", "properties": { "rte": 72, "dir": 1, "rte_desc": "72-Killingsworth\/82nd Ave", "dir_desc": "To Clackamas Town Center", "type": "BUS", "stop_seq": 4750, "stop_id": 8004, "stop_name": "SE 82nd & Main", "jurisdic": "Portland", "zipcode": "97216", "frequent": "True" }, "geometry": { "type": "Point", "coordinates": [ -122.57888254554376, 45.513668261160824 ] } },
{ "type": "Feature", "properties": { "rte": 72, "dir": 1, "rte_desc": "72-Killingsworth\/82nd Ave", "dir_desc": "To Clackamas Town Center", "type": "BUS", "stop_seq": 4900, "stop_id": 7923, "stop_name": "2200 Block SE 82nd", "jurisdic": "Portland", "zipcode": "97216", "frequent": "True" }, "geometry": { "type": "Point", "coordinates": [ -122.57879405800659, 45.50716725648369 ] } },
{ "type": "Feature", "properties": { "rte": 72, "dir": 1, "rte_desc": "72-Killingsworth\/82nd Ave", "dir_desc": "To Clackamas Town Center", "type": "BUS", "stop_seq": 5050, "stop_id": 8062, "stop_name": "SE 82nd & Woodward", "jurisdic": "Portland", "zipcode": "97266", "frequent": "True" }, "geometry": { "type": "Point", "coordinates": [ -122.57882307526295, 45.501174565830851 ] } },
{ "type": "Feature", "properties": { "rte": 72, "dir": 1, "rte_desc": "72-Killingsworth\/82nd Ave", "dir_desc": "To Clackamas Town Center", "type": "BUS", "stop_seq": 5150, "stop_id": 8024, "stop_name": "SE 82nd & Powell", "jurisdic": "Portland", "zipcode": "97266", "frequent": "True" }, "geometry": { "type": "Point", "coordinates": [ -122.57887571840114, 45.497110051477804 ] } },
{ "type": "Feature", "properties": { "rte": 72, "dir": 1, "rte_desc": "72-Killingsworth\/82nd Ave", "dir_desc": "To Clackamas Town Center", "type": "BUS", "stop_seq": 5300, "stop_id": 7986, "stop_name": "SE 82nd & Holgate", "jurisdic": "Portland", "zipcode": "97266", "frequent": "True" }, "geometry": { "type": "Point", "coordinates": [ -122.57896918369207, 45.490480427131388 ] } },
{ "type": "Feature", "properties": { "rte": 72, "dir": 1, "rte_desc": "72-Killingsworth\/82nd Ave", "dir_desc": "To Clackamas Town Center", "type": "BUS", "stop_seq": 5450, "stop_id": 8009, "stop_name": "SE 82nd & Mitchell", "jurisdic": "Portland", "zipcode": "97266", "frequent": "True" }, "geometry": { "type": "Point", "coordinates": [ -122.57907593609613, 45.484916796731639 ] } },
{ "type": "Feature", "properties": { "rte": 72, "dir": 1, "rte_desc": "72-Killingsworth\/82nd Ave", "dir_desc": "To Clackamas Town Center", "type": "BUS", "stop_seq": 5550, "stop_id": 8028, "stop_name": "SE 82nd & Ramona", "jurisdic": "Portland", "zipcode": "97266", "frequent": "True" }, "geometry": { "type": "Point", "coordinates": [ -122.57909932271735, 45.481063845334546 ] } },
{ "type": "Feature", "properties": { "rte": 72, "dir": 1, "rte_desc": "72-Killingsworth\/82nd Ave", "dir_desc": "To Clackamas Town Center", "type": "BUS", "stop_seq": 5700, "stop_id": 7961, "stop_name": "SE 82nd & Duke", "jurisdic": "Portland", "zipcode": "97266", "frequent": "True" }, "geometry": { "type": "Point", "coordinates": [ -122.57919404135156, 45.475618503146336 ] } },
{ "type": "Feature", "properties": { "rte": 72, "dir": 1, "rte_desc": "72-Killingsworth\/82nd Ave", "dir_desc": "To Clackamas Town Center", "type": "BUS", "stop_seq": 5850, "stop_id": 7963, "stop_name": "SE 82nd & Flavel", "jurisdic": "Portland", "zipcode": "97266", "frequent": "True" }, "geometry": { "type": "Point", "coordinates": [ -122.57916362564895, 45.468870751420475 ] } },
{ "type": "Feature", "properties": { "rte": 72, "dir": 1, "rte_desc": "72-Killingsworth\/82nd Ave", "dir_desc": "To Clackamas Town Center", "type": "BUS", "stop_seq": 5950, "stop_id": 7954, "stop_name": "SE 82nd & Crystal Springs", "jurisdic": "Portland", "zipcode": "97206", "frequent": "True" }, "geometry": { "type": "Point", "coordinates": [ -122.57917895115547, 45.46420875807415 ] } },
{ "type": "Feature", "properties": { "rte": 72, "dir": 1, "rte_desc": "72-Killingsworth\/82nd Ave", "dir_desc": "To Clackamas Town Center", "type": "BUS", "stop_seq": 6100, "stop_id": 7996, "stop_name": "SE 82nd & Lindy", "jurisdic": "Clackamas Co.", "zipcode": "97086", "frequent": "True" }, "geometry": { "type": "Point", "coordinates": [ -122.57920620971549, 45.458502003407794 ] } },
{ "type": "Feature", "properties": { "rte": 72, "dir": 1, "rte_desc": "72-Killingsworth\/82nd Ave", "dir_desc": "To Clackamas Town Center", "type": "BUS", "stop_seq": 6250, "stop_id": 8016, "stop_name": "SE 82nd & Otty", "jurisdic": "Clackamas Co.", "zipcode": "97086", "frequent": "True" }, "geometry": { "type": "Point", "coordinates": [ -122.57918501824818, 45.451013673123605 ] } },
{ "type": "Feature", "properties": { "rte": 72, "dir": 1, "rte_desc": "72-Killingsworth\/82nd Ave", "dir_desc": "To Clackamas Town Center", "type": "BUS", "stop_seq": 6350, "stop_id": 7990, "stop_name": "SE 82nd & King", "jurisdic": "Clackamas Co.", "zipcode": "97086", "frequent": "True" }, "geometry": { "type": "Point", "coordinates": [ -122.57907078590056, 45.446588179559569 ] } },
{ "type": "Feature", "properties": { "rte": 72, "dir": 1, "rte_desc": "72-Killingsworth\/82nd Ave", "dir_desc": "To Clackamas Town Center", "type": "BUS", "stop_seq": 800, "stop_id": 9399, "stop_name": "N Going & Port Center Way", "jurisdic": "Portland", "zipcode": "97217", "frequent": "True" }, "geometry": { "type": "Point", "coordinates": [ -122.69851221572976, 45.555963835827676 ] } },
{ "type": "Feature", "properties": { "rte": 72, "dir": 1, "rte_desc": "72-Killingsworth\/82nd Ave", "dir_desc": "To Clackamas Town Center", "type": "BUS", "stop_seq": 1000, "stop_id": 2226, "stop_name": "N Greeley & Sumner", "jurisdic": "Portland", "zipcode": "97217", "frequent": "True" }, "geometry": { "type": "Point", "coordinates": [ -122.69455582858996, 45.560366445644732 ] } },
{ "type": "Feature", "properties": { "rte": 72, "dir": 1, "rte_desc": "72-Killingsworth\/82nd Ave", "dir_desc": "To Clackamas Town Center", "type": "BUS", "stop_seq": 1100, "stop_id": 3160, "stop_name": "N Killingsworth & Delaware", "jurisdic": "Portland", "zipcode": "97217", "frequent": "True" }, "geometry": { "type": "Point", "coordinates": [ -122.69270336188629, 45.562690333283186 ] } },
{ "type": "Feature", "properties": { "rte": 72, "dir": 1, "rte_desc": "72-Killingsworth\/82nd Ave", "dir_desc": "To Clackamas Town Center", "type": "BUS", "stop_seq": 1250, "stop_id": 3158, "stop_name": "N Killingsworth & Concord", "jurisdic": "Portland", "zipcode": "97217", "frequent": "True" }, "geometry": { "type": "Point", "coordinates": [ -122.68502327352, 45.562638847050202 ] } },
{ "type": "Feature", "properties": { "rte": 72, "dir": 1, "rte_desc": "72-Killingsworth\/82nd Ave", "dir_desc": "To Clackamas Town Center", "type": "BUS", "stop_seq": 1400, "stop_id": 3173, "stop_name": "N Killingsworth & Michigan", "jurisdic": "Portland", "zipcode": "97217", "frequent": "True" }, "geometry": { "type": "Point", "coordinates": [ -122.6771492008664, 45.5626343870479 ] } },
{ "type": "Feature", "properties": { "rte": 72, "dir": 1, "rte_desc": "72-Killingsworth\/82nd Ave", "dir_desc": "To Clackamas Town Center", "type": "BUS", "stop_seq": 1500, "stop_id": 3171, "stop_name": "N Killingsworth & Kerby", "jurisdic": "Portland", "zipcode": "97217", "frequent": "True" }, "geometry": { "type": "Point", "coordinates": [ -122.6731457893828, 45.562648704430877 ] } },
{ "type": "Feature", "properties": { "rte": 72, "dir": 1, "rte_desc": "72-Killingsworth\/82nd Ave", "dir_desc": "To Clackamas Town Center", "type": "BUS", "stop_seq": 1750, "stop_id": 3165, "stop_name": "NE Killingsworth & Garfield", "jurisdic": "Portland", "zipcode": "97211", "frequent": "True" }, "geometry": { "type": "Point", "coordinates": [ -122.66322702617208, 45.562683951295 ] } },
{ "type": "Feature", "properties": { "rte": 72, "dir": 1, "rte_desc": "72-Killingsworth\/82nd Ave", "dir_desc": "To Clackamas Town Center", "type": "BUS", "stop_seq": 2100, "stop_id": 50, "stop_name": "NE Alberta & 13th", "jurisdic": "Portland", "zipcode": "97211", "frequent": "True" }, "geometry": { "type": "Point", "coordinates": [ -122.65274523035706, 45.559045870904662 ] } },
{ "type": "Feature", "properties": { "rte": 72, "dir": 1, "rte_desc": "72-Killingsworth\/82nd Ave", "dir_desc": "To Clackamas Town Center", "type": "BUS", "stop_seq": 2200, "stop_id": 54, "stop_name": "NE Alberta & 18th", "jurisdic": "Portland", "zipcode": "97211", "frequent": "True" }, "geometry": { "type": "Point", "coordinates": [ -122.64689926274789, 45.559041393725202 ] } },
{ "type": "Feature", "properties": { "rte": 72, "dir": 1, "rte_desc": "72-Killingsworth\/82nd Ave", "dir_desc": "To Clackamas Town Center", "type": "BUS", "stop_seq": 2350, "stop_id": 60, "stop_name": "NE Alberta & 24th", "jurisdic": "Portland", "zipcode": "97211", "frequent": "True" }, "geometry": { "type": "Point", "coordinates": [ -122.64104234430422, 45.55900908726975 ] } },
{ "type": "Feature", "properties": { "rte": 72, "dir": 1, "rte_desc": "72-Killingsworth\/82nd Ave", "dir_desc": "To Clackamas Town Center", "type": "BUS", "stop_seq": 4650, "stop_id": 8066, "stop_name": "SE 82nd & Yamhill", "jurisdic": "Portland", "zipcode": "97216", "frequent": "True" }, "geometry": { "type": "Point", "coordinates": [ -122.57900335209449, 45.515936183303523 ] } },
{ "type": "Feature", "properties": { "rte": 72, "dir": 1, "rte_desc": "72-Killingsworth\/82nd Ave", "dir_desc": "To Clackamas Town Center", "type": "BUS", "stop_seq": 5650, "stop_id": 8058, "stop_name": "SE 82nd & Tolman", "jurisdic": "Portland", "zipcode": "97266", "frequent": "True" }, "geometry": { "type": "Point", "coordinates": [ -122.57917378003339, 45.477735978053509 ] } },
{ "type": "Feature", "properties": { "rte": 72, "dir": 1, "rte_desc": "72-Killingsworth\/82nd Ave", "dir_desc": "To Clackamas Town Center", "type": "BUS", "stop_seq": 6050, "stop_id": 7952, "stop_name": "SE 82nd & Cornwell", "jurisdic": "Clackamas Co.", "zipcode": "97086", "frequent": "True" }, "geometry": { "type": "Point", "coordinates": [ -122.57919606926617, 45.460024827088311 ] } },
{ "type": "Feature", "properties": { "rte": 72, "dir": 1, "rte_desc": "72-Killingsworth\/82nd Ave", "dir_desc": "To Clackamas Town Center", "type": "BUS", "stop_seq": 2300, "stop_id": 11471, "stop_name": "NE Alberta & 21st", "jurisdic": "Portland", "zipcode": "97211", "frequent": "True" }, "geometry": { "type": "Point", "coordinates": [ -122.64398306525052, 45.559032929333178 ] } },
{ "type": "Feature", "properties": { "rte": 72, "dir": 1, "rte_desc": "72-Killingsworth\/82nd Ave", "dir_desc": "To Clackamas Town Center", "type": "BUS", "stop_seq": 1950, "stop_id": 11478, "stop_name": "NE Alberta & 7th", "jurisdic": "Portland", "zipcode": "97211", "frequent": "True" }, "geometry": { "type": "Point", "coordinates": [ -122.65873433163502, 45.559053137571752 ] } },
{ "type": "Feature", "properties": { "rte": 72, "dir": 1, "rte_desc": "72-Killingsworth\/82nd Ave", "dir_desc": "To Clackamas Town Center", "type": "BUS", "stop_seq": 1050, "stop_id": 9403, "stop_name": "N Killingsworth & Greeley", "jurisdic": "Portland", "zipcode": "97217", "frequent": "True" }, "geometry": { "type": "Point", "coordinates": [ -122.69502684464265, 45.562679040378875 ] } },
{ "type": "Feature", "properties": { "rte": 72, "dir": 1, "rte_desc": "72-Killingsworth\/82nd Ave", "dir_desc": "To Clackamas Town Center", "type": "BUS", "stop_seq": 1900, "stop_id": 46, "stop_name": "NE Alberta & M L King", "jurisdic": "Portland", "zipcode": "97211", "frequent": "True" }, "geometry": { "type": "Point", "coordinates": [ -122.66106350612088, 45.559061485588522 ] } },
{ "type": "Feature", "properties": { "rte": 72, "dir": 1, "rte_desc": "72-Killingsworth\/82nd Ave", "dir_desc": "To Clackamas Town Center", "type": "BUS", "stop_seq": 3850, "stop_id": 7992, "stop_name": "NE 82nd & Klickitat", "jurisdic": "Portland", "zipcode": "97220", "frequent": "True" }, "geometry": { "type": "Point", "coordinates": [ -122.57889326489183, 45.546423365615269 ] } },
{ "type": "Feature", "properties": { "rte": 72, "dir": 1, "rte_desc": "72-Killingsworth\/82nd Ave", "dir_desc": "To Clackamas Town Center", "type": "BUS", "stop_seq": 5400, "stop_id": 8030, "stop_name": "SE 82nd & Raymond", "jurisdic": "Portland", "zipcode": "97266", "frequent": "True" }, "geometry": { "type": "Point", "coordinates": [ -122.57900404361851, 45.486678474188004 ] } },
{ "type": "Feature", "properties": { "rte": 72, "dir": 1, "rte_desc": "72-Killingsworth\/82nd Ave", "dir_desc": "To Clackamas Town Center", "type": "BUS", "stop_seq": 6200, "stop_id": 8018, "stop_name": "SE 82nd & Overland", "jurisdic": "Clackamas Co.", "zipcode": "97086", "frequent": "True" }, "geometry": { "type": "Point", "coordinates": [ -122.57930285150181, 45.454393883935865 ] } },
{ "type": "Feature", "properties": { "rte": 72, "dir": 1, "rte_desc": "72-Killingsworth\/82nd Ave", "dir_desc": "To Clackamas Town Center", "type": "BUS", "stop_seq": 1450, "stop_id": 3153, "stop_name": "N Killingsworth & Albina", "jurisdic": "Portland", "zipcode": "97217", "frequent": "True" }, "geometry": { "type": "Point", "coordinates": [ -122.67512637686781, 45.562641049190347 ] } },
{ "type": "Feature", "properties": { "rte": 72, "dir": 1, "rte_desc": "72-Killingsworth\/82nd Ave", "dir_desc": "To Clackamas Town Center", "type": "BUS", "stop_seq": 6550, "stop_id": 12921, "stop_name": "Clackamas Town Center Mall", "jurisdic": "Clackamas Co.", "zipcode": "97086", "frequent": "True" }, "geometry": { "type": "Point", "coordinates": [ -122.57331242700951, 45.437310329219912 ] } },
{ "type": "Feature", "properties": { "rte": 72, "dir": 1, "rte_desc": "72-Killingsworth\/82nd Ave", "dir_desc": "To Clackamas Town Center", "type": "BUS", "stop_seq": 4550, "stop_id": 8048, "stop_name": "SE 82nd & Stark", "jurisdic": "Portland", "zipcode": "97215", "frequent": "True" }, "geometry": { "type": "Point", "coordinates": [ -122.57921839926085, 45.519294127443757 ] } },
{ "type": "Feature", "properties": { "rte": 72, "dir": 1, "rte_desc": "72-Killingsworth\/82nd Ave", "dir_desc": "To Clackamas Town Center", "type": "BUS", "stop_seq": 2000, "stop_id": 69, "stop_name": "NE Alberta & 9th", "jurisdic": "Portland", "zipcode": "97211", "frequent": "True" }, "geometry": { "type": "Point", "coordinates": [ -122.65666970862401, 45.559066675482462 ] } },
{ "type": "Feature", "properties": { "rte": 72, "dir": 1, "rte_desc": "72-Killingsworth\/82nd Ave", "dir_desc": "To Clackamas Town Center", "type": "BUS", "stop_seq": 3200, "stop_id": 3146, "stop_name": "NE Killingsworth & 60th", "jurisdic": "Portland", "zipcode": "97218", "frequent": "True" }, "geometry": { "type": "Point", "coordinates": [ -122.60096215993879, 45.562679029950104 ] } },
{ "type": "Feature", "properties": { "rte": 72, "dir": 1, "rte_desc": "72-Killingsworth\/82nd Ave", "dir_desc": "To Clackamas Town Center", "type": "BUS", "stop_seq": 3265, "stop_id": 10601, "stop_name": "NE Killingsworth & Cully", "jurisdic": "Portland", "zipcode": "97218", "frequent": "True" }, "geometry": { "type": "Point", "coordinates": [ -122.59385933093742, 45.562796892675749 ] } },
{ "type": "Feature", "properties": { "rte": 72, "dir": 1, "rte_desc": "72-Killingsworth\/82nd Ave", "dir_desc": "To Clackamas Town Center", "type": "BUS", "stop_seq": 3280, "stop_id": 1243, "stop_name": "NE Cully & Killingsworth", "jurisdic": "Portland", "zipcode": "97218", "frequent": "True" }, "geometry": { "type": "Point", "coordinates": [ -122.59377518654196, 45.56302430291349 ] } },
{ "type": "Feature", "properties": { "rte": 72, "dir": 1, "rte_desc": "72-Killingsworth\/82nd Ave", "dir_desc": "To Clackamas Town Center", "type": "BUS", "stop_seq": 2750, "stop_id": 3195, "stop_name": "NE Killingsworth & 36th", "jurisdic": "Portland", "zipcode": "97211", "frequent": "True" }, "geometry": { "type": "Point", "coordinates": [ -122.62674214835397, 45.562694478762623 ] } },
{ "type": "Feature", "properties": { "rte": 72, "dir": 1, "rte_desc": "72-Killingsworth\/82nd Ave", "dir_desc": "To Clackamas Town Center", "type": "BUS", "stop_seq": 4850, "stop_id": 8008, "stop_name": "SE 82nd & Mill", "jurisdic": "Portland", "zipcode": "97216", "frequent": "True" }, "geometry": { "type": "Point", "coordinates": [ -122.57880326982668, 45.509805379028101 ] } },
{ "type": "Feature", "properties": { "rte": 72, "dir": 1, "rte_desc": "72-Killingsworth\/82nd Ave", "dir_desc": "To Clackamas Town Center", "type": "BUS", "stop_seq": 2150, "stop_id": 52, "stop_name": "NE Alberta & 15th", "jurisdic": "Portland", "zipcode": "97211", "frequent": "True" }, "geometry": { "type": "Point", "coordinates": [ -122.64987700683872, 45.559035391436325 ] } },
{ "type": "Feature", "properties": { "rte": 72, "dir": 1, "rte_desc": "72-Killingsworth\/82nd Ave", "dir_desc": "To Clackamas Town Center", "type": "BUS", "stop_seq": 2450, "stop_id": 11722, "stop_name": "NE Alberta & 30th", "jurisdic": "Portland", "zipcode": "97211", "frequent": "True" }, "geometry": { "type": "Point", "coordinates": [ -122.6349609917274, 45.558995833647671 ] } },
{ "type": "Feature", "properties": { "rte": 72, "dir": 1, "rte_desc": "72-Killingsworth\/82nd Ave", "dir_desc": "To Clackamas Town Center", "type": "BUS", "stop_seq": 2800, "stop_id": 3198, "stop_name": "NE Killingsworth & Cesar Chavez Blvd", "jurisdic": "Portland", "zipcode": "97211", "frequent": "True" }, "geometry": { "type": "Point", "coordinates": [ -122.62356623296016, 45.56270419687241 ] } },
{ "type": "Feature", "properties": { "rte": 72, "dir": 1, "rte_desc": "72-Killingsworth\/82nd Ave", "dir_desc": "To Clackamas Town Center", "type": "BUS", "stop_seq": 5750, "stop_id": 7950, "stop_name": "SE 82nd & Cooper", "jurisdic": "Portland", "zipcode": "97266", "frequent": "True" }, "geometry": { "type": "Point", "coordinates": [ -122.5791893702571, 45.473722264881751 ] } },
{ "type": "Feature", "properties": { "rte": 72, "dir": 1, "rte_desc": "72-Killingsworth\/82nd Ave", "dir_desc": "To Clackamas Town Center", "type": "BUS", "stop_seq": 6675, "stop_id": 13248, "stop_name": "Clackamas Town Center Transit Center", "jurisdic": "Clackamas Co.", "zipcode": "97015", "frequent": "True" }, "geometry": { "type": "Point", "coordinates": [ -122.56870745294735, 45.435669419483041 ] } },
{ "type": "Feature", "properties": { "rte": 72, "dir": 1, "rte_desc": "72-Killingsworth\/82nd Ave", "dir_desc": "To Clackamas Town Center", "type": "BUS", "stop_seq": 5215, "stop_id": 13707, "stop_name": "SE 82nd & Center", "jurisdic": "Portland", "zipcode": "97266", "frequent": "True" }, "geometry": { "type": "Point", "coordinates": [ -122.57888927371053, 45.493624450492852 ] } },
{ "type": "Feature", "properties": { "rte": 72, "dir": 1, "rte_desc": "72-Killingsworth\/82nd Ave", "dir_desc": "To Clackamas Town Center", "type": "BUS", "stop_seq": 6600, "stop_id": 13247, "stop_name": "Clackamas Town Center TC", "jurisdic": "Clackamas Co.", "zipcode": "97015", "frequent": "True" }, "geometry": { "type": "Point", "coordinates": [ -122.56813401888508, 45.435555074164462 ] } }
]
}
