{
"type": "FeatureCollection",
"crs": { "type": "name", "properties": { "name": "urn:ogc:def:crs:OGC:1.3:CRS84" } },
"features": [
{ "type": "Feature", "properties": { "rte": 66, "dir": 0, "rte_desc": "66-Marquam Hill\/Hollywood", "dir_desc": "To Hollywood Transit Center", "type": "BUS", "stop_seq": 45, "stop_id": 9488, "stop_name": "3505 SW US Veterans Rd", "jurisdic": "Portland", "zipcode": "97239", "frequent": "False" }, "geometry": { "type": "Point", "coordinates": [ -122.68815613954092, 45.497355205030082 ] } },
{ "type": "Feature", "properties": { "rte": 66, "dir": 0, "rte_desc": "66-Marquam Hill\/Hollywood", "dir_desc": "To Hollywood Transit Center", "type": "BUS", "stop_seq": 350, "stop_id": 4627, "stop_name": "SE Powell & 26th", "jurisdic": "Portland", "zipcode": "97202", "frequent": "False" }, "geometry": { "type": "Point", "coordinates": [ -122.63977952183795, 45.49784658290519 ] } },
{ "type": "Feature", "properties": { "rte": 66, "dir": 0, "rte_desc": "66-Marquam Hill\/Hollywood", "dir_desc": "To Hollywood Transit Center", "type": "BUS", "stop_seq": 450, "stop_id": 7445, "stop_name": "SE Cesar Chavez Blvd & Division", "jurisdic": "Portland", "zipcode": "97214", "frequent": "False" }, "geometry": { "type": "Point", "coordinates": [ -122.62251811830318, 45.504987438807611 ] } },
{ "type": "Feature", "properties": { "rte": 66, "dir": 0, "rte_desc": "66-Marquam Hill\/Hollywood", "dir_desc": "To Hollywood Transit Center", "type": "BUS", "stop_seq": 550, "stop_id": 7437, "stop_name": "SE Cesar Chavez Blvd & Belmont", "jurisdic": "Portland", "zipcode": "97214", "frequent": "False" }, "geometry": { "type": "Point", "coordinates": [ -122.62283163295724, 45.516350889348473 ] } },
{ "type": "Feature", "properties": { "rte": 66, "dir": 0, "rte_desc": "66-Marquam Hill\/Hollywood", "dir_desc": "To Hollywood Transit Center", "type": "BUS", "stop_seq": 600, "stop_id": 7440, "stop_name": "SE Cesar Chavez Blvd & E Burnside", "jurisdic": "Portland", "zipcode": "97214", "frequent": "False" }, "geometry": { "type": "Point", "coordinates": [ -122.62291527724695, 45.523397684034791 ] } },
{ "type": "Feature", "properties": { "rte": 66, "dir": 0, "rte_desc": "66-Marquam Hill\/Hollywood", "dir_desc": "To Hollywood Transit Center", "type": "BUS", "stop_seq": 25, "stop_id": 5975, "stop_name": "US Veterans Hospital", "jurisdic": "Portland", "zipcode": "97239", "frequent": "False" }, "geometry": { "type": "Point", "coordinates": [ -122.68327068056082, 45.497058333643118 ] } },
{ "type": "Feature", "properties": { "rte": 66, "dir": 0, "rte_desc": "66-Marquam Hill\/Hollywood", "dir_desc": "To Hollywood Transit Center", "type": "BUS", "stop_seq": 55, "stop_id": 5032, "stop_name": "SW Sam Jackson Pk & US Veterans", "jurisdic": "Portland", "zipcode": "97239", "frequent": "False" }, "geometry": { "type": "Point", "coordinates": [ -122.68716115199705, 45.499042245308303 ] } },
{ "type": "Feature", "properties": { "rte": 66, "dir": 0, "rte_desc": "66-Marquam Hill\/Hollywood", "dir_desc": "To Hollywood Transit Center", "type": "BUS", "stop_seq": 300, "stop_id": 4537, "stop_name": "SE Powell & Milwaukie", "jurisdic": "Portland", "zipcode": "97202", "frequent": "False" }, "geometry": { "type": "Point", "coordinates": [ -122.65446926200879, 45.501090418507189 ] } },
{ "type": "Feature", "properties": { "rte": 66, "dir": 0, "rte_desc": "66-Marquam Hill\/Hollywood", "dir_desc": "To Hollywood Transit Center", "type": "BUS", "stop_seq": 500, "stop_id": 7459, "stop_name": "SE Cesar Chavez Blvd & Hawthorne", "jurisdic": "Portland", "zipcode": "97214", "frequent": "False" }, "geometry": { "type": "Point", "coordinates": [ -122.62267216083298, 45.511762739724503 ] } },
{ "type": "Feature", "properties": { "rte": 66, "dir": 0, "rte_desc": "66-Marquam Hill\/Hollywood", "dir_desc": "To Hollywood Transit Center", "type": "BUS", "stop_seq": 650, "stop_id": 7451, "stop_name": "NE Cesar Chavez Blvd & Glisan", "jurisdic": "Portland", "zipcode": "97232", "frequent": "False" }, "geometry": { "type": "Point", "coordinates": [ -122.62245052117093, 45.526469814961729 ] } },
{ "type": "Feature", "properties": { "rte": 66, "dir": 0, "rte_desc": "66-Marquam Hill\/Hollywood", "dir_desc": "To Hollywood Transit Center", "type": "BUS", "stop_seq": 340, "stop_id": 4622, "stop_name": "SE Powell & 21st", "jurisdic": "Portland", "zipcode": "97202", "frequent": "False" }, "geometry": { "type": "Point", "coordinates": [ -122.64422495755556, 45.499143500971648 ] } },
{ "type": "Feature", "properties": { "rte": 66, "dir": 0, "rte_desc": "66-Marquam Hill\/Hollywood", "dir_desc": "To Hollywood Transit Center", "type": "BUS", "stop_seq": 700, "stop_id": 10871, "stop_name": "Hollywood Transit Center", "jurisdic": "Portland", "zipcode": "97232", "frequent": "False" }, "geometry": { "type": "Point", "coordinates": [ -122.62057449929628, 45.533336490693706 ] } },
{ "type": "Feature", "properties": { "rte": 66, "dir": 0, "rte_desc": "66-Marquam Hill\/Hollywood", "dir_desc": "To Hollywood Transit Center", "type": "BUS", "stop_seq": 100, "stop_id": 871, "stop_name": "SW Campus Dr & Loading Dock 5", "jurisdic": "Portland", "zipcode": "97239", "frequent": "False" }, "geometry": { "type": "Point", "coordinates": [ -122.68514079906792, 45.498877205177884 ] } },
{ "type": "Feature", "properties": { "rte": 66, "dir": 0, "rte_desc": "66-Marquam Hill\/Hollywood", "dir_desc": "To Hollywood Transit Center", "type": "BUS", "stop_seq": 125, "stop_id": 10176, "stop_name": "700 SW Campus Dr at Doernbecher", "jurisdic": "Portland", "zipcode": "97239", "frequent": "False" }, "geometry": { "type": "Point", "coordinates": [ -122.68590102057394, 45.497876895369586 ] } },
{ "type": "Feature", "properties": { "rte": 66, "dir": 0, "rte_desc": "66-Marquam Hill\/Hollywood", "dir_desc": "To Hollywood Transit Center", "type": "BUS", "stop_seq": 150, "stop_id": 868, "stop_name": "SW Campus Dr & OHSU Garage F", "jurisdic": "Portland", "zipcode": "97239", "frequent": "False" }, "geometry": { "type": "Point", "coordinates": [ -122.68430258691191, 45.498186562258518 ] } },
{ "type": "Feature", "properties": { "rte": 66, "dir": 0, "rte_desc": "66-Marquam Hill\/Hollywood", "dir_desc": "To Hollywood Transit Center", "type": "BUS", "stop_seq": 400, "stop_id": 7477, "stop_name": "SE Cesar Chavez Blvd & Powell", "jurisdic": "Portland", "zipcode": "97202", "frequent": "False" }, "geometry": { "type": "Point", "coordinates": [ -122.62248689769888, 45.497871072317544 ] } },
{ "type": "Feature", "properties": { "rte": 66, "dir": 0, "rte_desc": "66-Marquam Hill\/Hollywood", "dir_desc": "To Hollywood Transit Center", "type": "BUS", "stop_seq": 35, "stop_id": 10612, "stop_name": "3515 SW US Veterans Rd", "jurisdic": "Portland", "zipcode": "97239", "frequent": "False" }, "geometry": { "type": "Point", "coordinates": [ -122.68652053151125, 45.497025712805616 ] } },
{ "type": "Feature", "properties": { "rte": 66, "dir": 0, "rte_desc": "66-Marquam Hill\/Hollywood", "dir_desc": "To Hollywood Transit Center", "type": "BUS", "stop_seq": 15, "stop_id": 8455, "stop_name": "SW US Veterans Rd & Bldg #16", "jurisdic": "Portland", "zipcode": "97239", "frequent": "False" }, "geometry": { "type": "Point", "coordinates": [ -122.68221997802766, 45.496422146278135 ] } },
{ "type": "Feature", "properties": { "rte": 66, "dir": 0, "rte_desc": "66-Marquam Hill\/Hollywood", "dir_desc": "To Hollywood Transit Center", "type": "BUS", "stop_seq": 75, "stop_id": 5027, "stop_name": "SW Sam Jackson Pk & Campus Dr", "jurisdic": "Portland", "zipcode": "97239", "frequent": "False" }, "geometry": { "type": "Point", "coordinates": [ -122.68426545105714, 45.50029842339972 ] } },
{ "type": "Feature", "properties": { "rte": 66, "dir": 0, "rte_desc": "66-Marquam Hill\/Hollywood", "dir_desc": "To Hollywood Transit Center", "type": "BUS", "stop_seq": 65, "stop_id": 5028, "stop_name": "SW Sam Jackson Pk & OHSU", "jurisdic": "Portland", "zipcode": "97239", "frequent": "False" }, "geometry": { "type": "Point", "coordinates": [ -122.68553545262937, 45.499336025348413 ] } },
{ "type": "Feature", "properties": { "rte": 66, "dir": 0, "rte_desc": "66-Marquam Hill\/Hollywood", "dir_desc": "To Hollywood Transit Center", "type": "BUS", "stop_seq": 200, "stop_id": 870, "stop_name": "SW Campus Dr & Terwilliger", "jurisdic": "Portland", "zipcode": "97239", "frequent": "False" }, "geometry": { "type": "Point", "coordinates": [ -122.68257202304342, 45.499108334121367 ] } },
{ "type": "Feature", "properties": { "rte": 66, "dir": 0, "rte_desc": "66-Marquam Hill\/Hollywood", "dir_desc": "To Hollywood Transit Center", "type": "BUS", "stop_seq": 250, "stop_id": 142, "stop_name": "SW Arthur & 1st", "jurisdic": "Portland", "zipcode": "97201", "frequent": "False" }, "geometry": { "type": "Point", "coordinates": [ -122.67899671680749, 45.503630230503362 ] } },
{ "type": "Feature", "properties": { "rte": 66, "dir": 1, "rte_desc": "66-Marquam Hill\/Hollywood", "dir_desc": "To Marquam Hill", "type": "BUS", "stop_seq": 100, "stop_id": 7452, "stop_name": "NE Cesar Chavez Blvd & Glisan", "jurisdic": "Portland", "zipcode": "97232", "frequent": "False" }, "geometry": { "type": "Point", "coordinates": [ -122.62355551345176, 45.526428597994091 ] } },
{ "type": "Feature", "properties": { "rte": 66, "dir": 1, "rte_desc": "66-Marquam Hill\/Hollywood", "dir_desc": "To Marquam Hill", "type": "BUS", "stop_seq": 150, "stop_id": 7441, "stop_name": "NE Cesar Chavez Blvd & E Burnside", "jurisdic": "Portland", "zipcode": "97232", "frequent": "False" }, "geometry": { "type": "Point", "coordinates": [ -122.62311615963166, 45.523707431278297 ] } },
{ "type": "Feature", "properties": { "rte": 66, "dir": 1, "rte_desc": "66-Marquam Hill\/Hollywood", "dir_desc": "To Marquam Hill", "type": "BUS", "stop_seq": 250, "stop_id": 7460, "stop_name": "SE Cesar Chavez Blvd & Hawthorne", "jurisdic": "Portland", "zipcode": "97214", "frequent": "False" }, "geometry": { "type": "Point", "coordinates": [ -122.62296386156055, 45.512184758677307 ] } },
{ "type": "Feature", "properties": { "rte": 66, "dir": 1, "rte_desc": "66-Marquam Hill\/Hollywood", "dir_desc": "To Marquam Hill", "type": "BUS", "stop_seq": 300, "stop_id": 7446, "stop_name": "SE Cesar Chavez Blvd & Division", "jurisdic": "Portland", "zipcode": "97214", "frequent": "False" }, "geometry": { "type": "Point", "coordinates": [ -122.62274247349613, 45.504943068233999 ] } },
{ "type": "Feature", "properties": { "rte": 66, "dir": 1, "rte_desc": "66-Marquam Hill\/Hollywood", "dir_desc": "To Marquam Hill", "type": "BUS", "stop_seq": 420, "stop_id": 4623, "stop_name": "SE Powell & 21st", "jurisdic": "Portland", "zipcode": "97202", "frequent": "False" }, "geometry": { "type": "Point", "coordinates": [ -122.64449638941174, 45.499397094100523 ] } },
{ "type": "Feature", "properties": { "rte": 66, "dir": 1, "rte_desc": "66-Marquam Hill\/Hollywood", "dir_desc": "To Marquam Hill", "type": "BUS", "stop_seq": 500, "stop_id": 143, "stop_name": "SW Arthur & 1st", "jurisdic": "Portland", "zipcode": "97201", "frequent": "False" }, "geometry": { "type": "Point", "coordinates": [ -122.67845128890312, 45.503811510137524 ] } },
{ "type": "Feature", "properties": { "rte": 66, "dir": 1, "rte_desc": "66-Marquam Hill\/Hollywood", "dir_desc": "To Marquam Hill", "type": "BUS", "stop_seq": 400, "stop_id": 4628, "stop_name": "SE Powell & 26th", "jurisdic": "Portland", "zipcode": "97202", "frequent": "False" }, "geometry": { "type": "Point", "coordinates": [ -122.63937020183744, 45.498016871439091 ] } },
{ "type": "Feature", "properties": { "rte": 66, "dir": 1, "rte_desc": "66-Marquam Hill\/Hollywood", "dir_desc": "To Marquam Hill", "type": "BUS", "stop_seq": 50, "stop_id": 10871, "stop_name": "Hollywood Transit Center", "jurisdic": "Portland", "zipcode": "97232", "frequent": "False" }, "geometry": { "type": "Point", "coordinates": [ -122.62057449929628, 45.533336490693706 ] } },
{ "type": "Feature", "properties": { "rte": 66, "dir": 1, "rte_desc": "66-Marquam Hill\/Hollywood", "dir_desc": "To Marquam Hill", "type": "BUS", "stop_seq": 200, "stop_id": 7438, "stop_name": "SE Cesar Chavez Blvd & Belmont", "jurisdic": "Portland", "zipcode": "97214", "frequent": "False" }, "geometry": { "type": "Point", "coordinates": [ -122.62305136326508, 45.516639005602599 ] } },
{ "type": "Feature", "properties": { "rte": 66, "dir": 1, "rte_desc": "66-Marquam Hill\/Hollywood", "dir_desc": "To Marquam Hill", "type": "BUS", "stop_seq": 450, "stop_id": 4538, "stop_name": "SE Powell & Milwaukie", "jurisdic": "Portland", "zipcode": "97202", "frequent": "False" }, "geometry": { "type": "Point", "coordinates": [ -122.65467876392232, 45.501411528482357 ] } },
{ "type": "Feature", "properties": { "rte": 66, "dir": 1, "rte_desc": "66-Marquam Hill\/Hollywood", "dir_desc": "To Marquam Hill", "type": "BUS", "stop_seq": 750, "stop_id": 10612, "stop_name": "3515 SW US Veterans Rd", "jurisdic": "Portland", "zipcode": "97239", "frequent": "False" }, "geometry": { "type": "Point", "coordinates": [ -122.68652053151125, 45.497025712805616 ] } },
{ "type": "Feature", "properties": { "rte": 66, "dir": 1, "rte_desc": "66-Marquam Hill\/Hollywood", "dir_desc": "To Marquam Hill", "type": "BUS", "stop_seq": 900, "stop_id": 871, "stop_name": "SW Campus Dr & Loading Dock 5", "jurisdic": "Portland", "zipcode": "97239", "frequent": "False" }, "geometry": { "type": "Point", "coordinates": [ -122.68514079906792, 45.498877205177884 ] } },
{ "type": "Feature", "properties": { "rte": 66, "dir": 1, "rte_desc": "66-Marquam Hill\/Hollywood", "dir_desc": "To Marquam Hill", "type": "BUS", "stop_seq": 950, "stop_id": 10176, "stop_name": "700 SW Campus Dr at Doernbecher", "jurisdic": "Portland", "zipcode": "97239", "frequent": "False" }, "geometry": { "type": "Point", "coordinates": [ -122.68590102057394, 45.497876895369586 ] } },
{ "type": "Feature", "properties": { "rte": 66, "dir": 1, "rte_desc": "66-Marquam Hill\/Hollywood", "dir_desc": "To Marquam Hill", "type": "BUS", "stop_seq": 1000, "stop_id": 868, "stop_name": "SW Campus Dr & OHSU Garage F", "jurisdic": "Portland", "zipcode": "97239", "frequent": "False" }, "geometry": { "type": "Point", "coordinates": [ -122.68430258691191, 45.498186562258518 ] } },
{ "type": "Feature", "properties": { "rte": 66, "dir": 1, "rte_desc": "66-Marquam Hill\/Hollywood", "dir_desc": "To Marquam Hill", "type": "BUS", "stop_seq": 600, "stop_id": 11010, "stop_name": "SW Terwilliger & Campus", "jurisdic": "Portland", "zipcode": "97239", "frequent": "False" }, "geometry": { "type": "Point", "coordinates": [ -122.68273295628553, 45.49925311106702 ] } },
{ "type": "Feature", "properties": { "rte": 66, "dir": 1, "rte_desc": "66-Marquam Hill\/Hollywood", "dir_desc": "To Marquam Hill", "type": "BUS", "stop_seq": 650, "stop_id": 8455, "stop_name": "SW US Veterans Rd & Bldg #16", "jurisdic": "Portland", "zipcode": "97239", "frequent": "False" }, "geometry": { "type": "Point", "coordinates": [ -122.68221997802766, 45.496422146278135 ] } },
{ "type": "Feature", "properties": { "rte": 66, "dir": 1, "rte_desc": "66-Marquam Hill\/Hollywood", "dir_desc": "To Marquam Hill", "type": "BUS", "stop_seq": 700, "stop_id": 5975, "stop_name": "US Veterans Hospital", "jurisdic": "Portland", "zipcode": "97239", "frequent": "False" }, "geometry": { "type": "Point", "coordinates": [ -122.68327068056082, 45.497058333643118 ] } },
{ "type": "Feature", "properties": { "rte": 66, "dir": 1, "rte_desc": "66-Marquam Hill\/Hollywood", "dir_desc": "To Marquam Hill", "type": "BUS", "stop_seq": 800, "stop_id": 9488, "stop_name": "3505 SW US Veterans Rd", "jurisdic": "Portland", "zipcode": "97239", "frequent": "False" }, "geometry": { "type": "Point", "coordinates": [ -122.68815613954092, 45.497355205030082 ] } },
{ "type": "Feature", "properties": { "rte": 66, "dir": 1, "rte_desc": "66-Marquam Hill\/Hollywood", "dir_desc": "To Marquam Hill", "type": "BUS", "stop_seq": 850, "stop_id": 5032, "stop_name": "SW Sam Jackson Pk & US Veterans", "jurisdic": "Portland", "zipcode": "97239", "frequent": "False" }, "geometry": { "type": "Point", "coordinates": [ -122.68716115199705, 45.499042245308303 ] } },
{ "type": "Feature", "properties": { "rte": 66, "dir": 1, "rte_desc": "66-Marquam Hill\/Hollywood", "dir_desc": "To Marquam Hill", "type": "BUS", "stop_seq": 350, "stop_id": 7476, "stop_name": "SE Cesar Chavez Blvd & Powell", "jurisdic": "Portland", "zipcode": "97202", "frequent": "False" }, "geometry": { "type": "Point", "coordinates": [ -122.62272059920986, 45.497541953560059 ] } },
{ "type": "Feature", "properties": { "rte": 66, "dir": 1, "rte_desc": "66-Marquam Hill\/Hollywood", "dir_desc": "To Marquam Hill", "type": "BUS", "stop_seq": 866, "stop_id": 5028, "stop_name": "SW Sam Jackson Pk & OHSU", "jurisdic": "Portland", "zipcode": "97239", "frequent": "False" }, "geometry": { "type": "Point", "coordinates": [ -122.68553545262937, 45.499336025348413 ] } },
{ "type": "Feature", "properties": { "rte": 66, "dir": 1, "rte_desc": "66-Marquam Hill\/Hollywood", "dir_desc": "To Marquam Hill", "type": "BUS", "stop_seq": 882, "stop_id": 5027, "stop_name": "SW Sam Jackson Pk & Campus Dr", "jurisdic": "Portland", "zipcode": "97239", "frequent": "False" }, "geometry": { "type": "Point", "coordinates": [ -122.68426545105714, 45.50029842339972 ] } },
{ "type": "Feature", "properties": { "rte": 66, "dir": 1, "rte_desc": "66-Marquam Hill\/Hollywood", "dir_desc": "To Marquam Hill", "type": "BUS", "stop_seq": 1050, "stop_id": 870, "stop_name": "SW Campus Dr & Terwilliger", "jurisdic": "Portland", "zipcode": "97239", "frequent": "False" }, "geometry": { "type": "Point", "coordinates": [ -122.68257202304342, 45.499108334121367 ] } }
]
}
