{
"type": "FeatureCollection",
"crs": { "type": "name", "properties": { "name": "urn:ogc:def:crs:OGC:1.3:CRS84" } },
"features": [
{ "type": "Feature", "properties": { "rte": 81, "dir": 0, "rte_desc": "81-Kane\/257th", "dir_desc": "To Troutdale", "type": "BUS", "stop_seq": 160, "stop_id": 4520, "stop_name": "E Powell & SE Cleveland", "jurisdic": "Gresham", "zipcode": "97030", "frequent": "False" }, "geometry": { "type": "Point", "coordinates": [ -122.42120863394386, 45.497921229406295 ] } },
{ "type": "Feature", "properties": { "rte": 81, "dir": 0, "rte_desc": "81-Kane\/257th", "dir_desc": "To Troutdale", "type": "BUS", "stop_seq": 240, "stop_id": 4639, "stop_name": "E Powell & SE 3rd", "jurisdic": "Gresham", "zipcode": "97080", "frequent": "False" }, "geometry": { "type": "Point", "coordinates": [ -122.41210891668347, 45.495758278464422 ] } },
{ "type": "Feature", "properties": { "rte": 81, "dir": 0, "rte_desc": "81-Kane\/257th", "dir_desc": "To Troutdale", "type": "BUS", "stop_seq": 260, "stop_id": 4545, "stop_name": "E Powell & SE Rene", "jurisdic": "Gresham", "zipcode": "97080", "frequent": "False" }, "geometry": { "type": "Point", "coordinates": [ -122.40972889785421, 45.494327742329993 ] } },
{ "type": "Feature", "properties": { "rte": 81, "dir": 0, "rte_desc": "81-Kane\/257th", "dir_desc": "To Troutdale", "type": "BUS", "stop_seq": 300, "stop_id": 4715, "stop_name": "SE Powell Valley & Hale", "jurisdic": "Gresham", "zipcode": "97080", "frequent": "False" }, "geometry": { "type": "Point", "coordinates": [ -122.40124904933354, 45.492543589236497 ] } },
{ "type": "Feature", "properties": { "rte": 81, "dir": 0, "rte_desc": "81-Kane\/257th", "dir_desc": "To Troutdale", "type": "BUS", "stop_seq": 420, "stop_id": 3092, "stop_name": "NE Kane & Division", "jurisdic": "Gresham", "zipcode": "97030", "frequent": "False" }, "geometry": { "type": "Point", "coordinates": [ -122.39977857959933, 45.505390592866014 ] } },
{ "type": "Feature", "properties": { "rte": 81, "dir": 0, "rte_desc": "81-Kane\/257th", "dir_desc": "To Troutdale", "type": "BUS", "stop_seq": 460, "stop_id": 3091, "stop_name": "NE Kane & 18th Ct", "jurisdic": "Gresham", "zipcode": "97030", "frequent": "False" }, "geometry": { "type": "Point", "coordinates": [ -122.39981044755453, 45.510156126650493 ] } },
{ "type": "Feature", "properties": { "rte": 81, "dir": 0, "rte_desc": "81-Kane\/257th", "dir_desc": "To Troutdale", "type": "BUS", "stop_seq": 480, "stop_id": 3105, "stop_name": "NE Kane & 23rd", "jurisdic": "Gresham", "zipcode": "97030", "frequent": "False" }, "geometry": { "type": "Point", "coordinates": [ -122.39935389754579, 45.513224296685785 ] } },
{ "type": "Feature", "properties": { "rte": 81, "dir": 0, "rte_desc": "81-Kane\/257th", "dir_desc": "To Troutdale", "type": "BUS", "stop_seq": 675, "stop_id": 10645, "stop_name": "2300 Block SW 257th", "jurisdic": "Troutdale", "zipcode": "97060", "frequent": "False" }, "geometry": { "type": "Point", "coordinates": [ -122.39829260652229, 45.524448455792268 ] } },
{ "type": "Feature", "properties": { "rte": 81, "dir": 0, "rte_desc": "81-Kane\/257th", "dir_desc": "To Troutdale", "type": "BUS", "stop_seq": 180, "stop_id": 4531, "stop_name": "E Powell & NE Liberty", "jurisdic": "Gresham", "zipcode": "97030", "frequent": "False" }, "geometry": { "type": "Point", "coordinates": [ -122.41872342090102, 45.49788756144337 ] } },
{ "type": "Feature", "properties": { "rte": 81, "dir": 0, "rte_desc": "81-Kane\/257th", "dir_desc": "To Troutdale", "type": "BUS", "stop_seq": 280, "stop_id": 4713, "stop_name": "2800 Block SE Powell Valley", "jurisdic": "Gresham", "zipcode": "97080", "frequent": "False" }, "geometry": { "type": "Point", "coordinates": [ -122.40351736523203, 45.493066662706106 ] } },
{ "type": "Feature", "properties": { "rte": 81, "dir": 0, "rte_desc": "81-Kane\/257th", "dir_desc": "To Troutdale", "type": "BUS", "stop_seq": 380, "stop_id": 3102, "stop_name": "NE Kane & 2nd Ct", "jurisdic": "Gresham", "zipcode": "97030", "frequent": "False" }, "geometry": { "type": "Point", "coordinates": [ -122.39862168728411, 45.498118856668583 ] } },
{ "type": "Feature", "properties": { "rte": 81, "dir": 0, "rte_desc": "81-Kane\/257th", "dir_desc": "To Troutdale", "type": "BUS", "stop_seq": 440, "stop_id": 3097, "stop_name": "NE Kane & 15th", "jurisdic": "Gresham", "zipcode": "97030", "frequent": "False" }, "geometry": { "type": "Point", "coordinates": [ -122.39984122133487, 45.508115806025693 ] } },
{ "type": "Feature", "properties": { "rte": 81, "dir": 0, "rte_desc": "81-Kane\/257th", "dir_desc": "To Troutdale", "type": "BUS", "stop_seq": 550, "stop_id": 8598, "stop_name": "SW 257th & SE Stark", "jurisdic": "Troutdale", "zipcode": "97060", "frequent": "False" }, "geometry": { "type": "Point", "coordinates": [ -122.39829192707749, 45.51957886863574 ] } },
{ "type": "Feature", "properties": { "rte": 81, "dir": 0, "rte_desc": "81-Kane\/257th", "dir_desc": "To Troutdale", "type": "BUS", "stop_seq": 700, "stop_id": 9046, "stop_name": "SW 257th & Hensley Rd", "jurisdic": "Troutdale", "zipcode": "97060", "frequent": "False" }, "geometry": { "type": "Point", "coordinates": [ -122.3983280494825, 45.526581744700806 ] } },
{ "type": "Feature", "properties": { "rte": 81, "dir": 0, "rte_desc": "81-Kane\/257th", "dir_desc": "To Troutdale", "type": "BUS", "stop_seq": 865, "stop_id": 10170, "stop_name": "400 Block SW 257th", "jurisdic": "Troutdale", "zipcode": "97060", "frequent": "False" }, "geometry": { "type": "Point", "coordinates": [ -122.39275718471342, 45.538110574290997 ] } },
{ "type": "Feature", "properties": { "rte": 81, "dir": 0, "rte_desc": "81-Kane\/257th", "dir_desc": "To Troutdale", "type": "BUS", "stop_seq": 360, "stop_id": 3100, "stop_name": "SE Kane & 2nd", "jurisdic": "Gresham", "zipcode": "97080", "frequent": "False" }, "geometry": { "type": "Point", "coordinates": [ -122.3986308486286, 45.496544206786595 ] } },
{ "type": "Feature", "properties": { "rte": 81, "dir": 0, "rte_desc": "81-Kane\/257th", "dir_desc": "To Troutdale", "type": "BUS", "stop_seq": 50, "stop_id": 10859, "stop_name": "Gresham Transit Center", "jurisdic": "Gresham", "zipcode": "97030", "frequent": "False" }, "geometry": { "type": "Point", "coordinates": [ -122.42684015281966, 45.503008446872194 ] } },
{ "type": "Feature", "properties": { "rte": 81, "dir": 0, "rte_desc": "81-Kane\/257th", "dir_desc": "To Troutdale", "type": "BUS", "stop_seq": 400, "stop_id": 3107, "stop_name": "NE Kane & 8th", "jurisdic": "Gresham", "zipcode": "97030", "frequent": "False" }, "geometry": { "type": "Point", "coordinates": [ -122.3997867449706, 45.50318503324003 ] } },
{ "type": "Feature", "properties": { "rte": 81, "dir": 0, "rte_desc": "81-Kane\/257th", "dir_desc": "To Troutdale", "type": "BUS", "stop_seq": 220, "stop_id": 4529, "stop_name": "E Powell & SE Hogan", "jurisdic": "Gresham", "zipcode": "97030", "frequent": "False" }, "geometry": { "type": "Point", "coordinates": [ -122.4145805151787, 45.497844056831291 ] } },
{ "type": "Feature", "properties": { "rte": 81, "dir": 0, "rte_desc": "81-Kane\/257th", "dir_desc": "To Troutdale", "type": "BUS", "stop_seq": 500, "stop_id": 10879, "stop_name": "NE Kane & 29th, MHCC", "jurisdic": "Gresham", "zipcode": "97030", "frequent": "False" }, "geometry": { "type": "Point", "coordinates": [ -122.39829698942671, 45.516020555817448 ] } },
{ "type": "Feature", "properties": { "rte": 81, "dir": 0, "rte_desc": "81-Kane\/257th", "dir_desc": "To Troutdale", "type": "BUS", "stop_seq": 600, "stop_id": 8599, "stop_name": "SW 257th & 28th", "jurisdic": "Troutdale", "zipcode": "97060", "frequent": "False" }, "geometry": { "type": "Point", "coordinates": [ -122.39827173910091, 45.521865835650843 ] } },
{ "type": "Feature", "properties": { "rte": 81, "dir": 0, "rte_desc": "81-Kane\/257th", "dir_desc": "To Troutdale", "type": "BUS", "stop_seq": 750, "stop_id": 9092, "stop_name": "SW 257th & 16th Way", "jurisdic": "Troutdale", "zipcode": "97060", "frequent": "False" }, "geometry": { "type": "Point", "coordinates": [ -122.39913842719525, 45.529762120570808 ] } },
{ "type": "Feature", "properties": { "rte": 81, "dir": 0, "rte_desc": "81-Kane\/257th", "dir_desc": "To Troutdale", "type": "BUS", "stop_seq": 850, "stop_id": 9094, "stop_name": "SW 257th & Cherry Park", "jurisdic": "Troutdale", "zipcode": "97060", "frequent": "False" }, "geometry": { "type": "Point", "coordinates": [ -122.39914469596019, 45.533422810322207 ] } },
{ "type": "Feature", "properties": { "rte": 81, "dir": 0, "rte_desc": "81-Kane\/257th", "dir_desc": "To Troutdale", "type": "BUS", "stop_seq": 860, "stop_id": 9427, "stop_name": "SW 257th & Jennings Way", "jurisdic": "Troutdale", "zipcode": "97060", "frequent": "False" }, "geometry": { "type": "Point", "coordinates": [ -122.39658437191484, 45.535858336553474 ] } },
{ "type": "Feature", "properties": { "rte": 81, "dir": 0, "rte_desc": "81-Kane\/257th", "dir_desc": "To Troutdale", "type": "BUS", "stop_seq": 120, "stop_id": 13033, "stop_name": "NE Hood & 2nd", "jurisdic": "Gresham", "zipcode": "97030", "frequent": "False" }, "geometry": { "type": "Point", "coordinates": [ -122.42783210484413, 45.498615610744501 ] } },
{ "type": "Feature", "properties": { "rte": 81, "dir": 0, "rte_desc": "81-Kane\/257th", "dir_desc": "To Troutdale", "type": "BUS", "stop_seq": 100, "stop_id": 13211, "stop_name": "NE Hood & 5th", "jurisdic": "Gresham", "zipcode": "97030", "frequent": "False" }, "geometry": { "type": "Point", "coordinates": [ -122.42802415464328, 45.501100414662773 ] } },
{ "type": "Feature", "properties": { "rte": 81, "dir": 0, "rte_desc": "81-Kane\/257th", "dir_desc": "To Troutdale", "type": "BUS", "stop_seq": 340, "stop_id": 13470, "stop_name": "SE Kane & 5th St", "jurisdic": "Gresham", "zipcode": "97080", "frequent": "False" }, "geometry": { "type": "Point", "coordinates": [ -122.39864225579203, 45.493803686848715 ] } },
{ "type": "Feature", "properties": { "rte": 81, "dir": 0, "rte_desc": "81-Kane\/257th", "dir_desc": "To Troutdale", "type": "BUS", "stop_seq": 140, "stop_id": 13474, "stop_name": "E Powell & NE Elliott", "jurisdic": "Gresham", "zipcode": "97030", "frequent": "False" }, "geometry": { "type": "Point", "coordinates": [ -122.42487589777599, 45.497921805875933 ] } },
{ "type": "Feature", "properties": { "rte": 81, "dir": 0, "rte_desc": "81-Kane\/257th", "dir_desc": "To Troutdale", "type": "BUS", "stop_seq": 950, "stop_id": 13331, "stop_name": "E Columbia River Hwy & SE Jackson Park", "jurisdic": "Troutdale", "zipcode": "97060", "frequent": "False" }, "geometry": { "type": "Point", "coordinates": [ -122.38088732364959, 45.537110385416462 ] } },
{ "type": "Feature", "properties": { "rte": 81, "dir": 0, "rte_desc": "81-Kane\/257th", "dir_desc": "To Troutdale", "type": "BUS", "stop_seq": 1000, "stop_id": 13314, "stop_name": "Glenn Otto Park", "jurisdic": "Troutdale", "zipcode": "97060", "frequent": "False" }, "geometry": { "type": "Point", "coordinates": [ -122.3782448658267, 45.537292700058231 ] } },
{ "type": "Feature", "properties": { "rte": 81, "dir": 0, "rte_desc": "81-Kane\/257th", "dir_desc": "To Troutdale", "type": "BUS", "stop_seq": 875, "stop_id": 8747, "stop_name": "W Columbia River Hwy & SW Kendall", "jurisdic": "Troutdale", "zipcode": "97060", "frequent": "False" }, "geometry": { "type": "Point", "coordinates": [ -122.38970507041768, 45.540679455301579 ] } },
{ "type": "Feature", "properties": { "rte": 81, "dir": 0, "rte_desc": "81-Kane\/257th", "dir_desc": "To Troutdale", "type": "BUS", "stop_seq": 900, "stop_id": 12838, "stop_name": "E Columbia River Hwy & SE Harlow", "jurisdic": "Troutdale", "zipcode": "97060", "frequent": "False" }, "geometry": { "type": "Point", "coordinates": [ -122.38645090584934, 45.540669241127837 ] } },
{ "type": "Feature", "properties": { "rte": 81, "dir": 0, "rte_desc": "81-Kane\/257th", "dir_desc": "To Troutdale", "type": "BUS", "stop_seq": 320, "stop_id": 13476, "stop_name": "SE Kane & Powell Valley", "jurisdic": "Gresham", "zipcode": "97080", "frequent": "False" }, "geometry": { "type": "Point", "coordinates": [ -122.39867667236366, 45.49232087496754 ] } },
{ "type": "Feature", "properties": { "rte": 81, "dir": 1, "rte_desc": "81-Kane\/257th", "dir_desc": "To Gresham Transit Center", "type": "BUS", "stop_seq": 1140, "stop_id": 3104, "stop_name": "NE Kane & 23rd", "jurisdic": "Gresham", "zipcode": "97030", "frequent": "False" }, "geometry": { "type": "Point", "coordinates": [ -122.39991642753387, 45.512721686105678 ] } },
{ "type": "Feature", "properties": { "rte": 81, "dir": 1, "rte_desc": "81-Kane\/257th", "dir_desc": "To Gresham Transit Center", "type": "BUS", "stop_seq": 1160, "stop_id": 3099, "stop_name": "NE Kane & 18th Ct", "jurisdic": "Gresham", "zipcode": "97030", "frequent": "False" }, "geometry": { "type": "Point", "coordinates": [ -122.40011933473926, 45.51034236125939 ] } },
{ "type": "Feature", "properties": { "rte": 81, "dir": 1, "rte_desc": "81-Kane\/257th", "dir_desc": "To Gresham Transit Center", "type": "BUS", "stop_seq": 1220, "stop_id": 3093, "stop_name": "NE Kane & Division", "jurisdic": "Gresham", "zipcode": "97030", "frequent": "False" }, "geometry": { "type": "Point", "coordinates": [ -122.40013642360847, 45.505029291292033 ] } },
{ "type": "Feature", "properties": { "rte": 81, "dir": 1, "rte_desc": "81-Kane\/257th", "dir_desc": "To Gresham Transit Center", "type": "BUS", "stop_seq": 1320, "stop_id": 8776, "stop_name": "SE Kane & Powell Valley", "jurisdic": "Gresham", "zipcode": "97080", "frequent": "False" }, "geometry": { "type": "Point", "coordinates": [ -122.39897490058445, 45.492194959519509 ] } },
{ "type": "Feature", "properties": { "rte": 81, "dir": 1, "rte_desc": "81-Kane\/257th", "dir_desc": "To Gresham Transit Center", "type": "BUS", "stop_seq": 1360, "stop_id": 4714, "stop_name": "2800 Block SE Powell Valley", "jurisdic": "Gresham", "zipcode": "97080", "frequent": "False" }, "geometry": { "type": "Point", "coordinates": [ -122.4034893873973, 45.493290473442329 ] } },
{ "type": "Feature", "properties": { "rte": 81, "dir": 1, "rte_desc": "81-Kane\/257th", "dir_desc": "To Gresham Transit Center", "type": "BUS", "stop_seq": 1380, "stop_id": 4518, "stop_name": "E Powell & SE Burnside", "jurisdic": "Gresham", "zipcode": "97080", "frequent": "False" }, "geometry": { "type": "Point", "coordinates": [ -122.40753016483934, 45.494177275415247 ] } },
{ "type": "Feature", "properties": { "rte": 81, "dir": 1, "rte_desc": "81-Kane\/257th", "dir_desc": "To Gresham Transit Center", "type": "BUS", "stop_seq": 1420, "stop_id": 4638, "stop_name": "E Powell & SE 3rd", "jurisdic": "Gresham", "zipcode": "97080", "frequent": "False" }, "geometry": { "type": "Point", "coordinates": [ -122.41196637825978, 45.496112652761511 ] } },
{ "type": "Feature", "properties": { "rte": 81, "dir": 1, "rte_desc": "81-Kane\/257th", "dir_desc": "To Gresham Transit Center", "type": "BUS", "stop_seq": 1480, "stop_id": 8461, "stop_name": "E Powell & NE Liberty", "jurisdic": "Gresham", "zipcode": "97030", "frequent": "False" }, "geometry": { "type": "Point", "coordinates": [ -122.41826568738438, 45.49811934464821 ] } },
{ "type": "Feature", "properties": { "rte": 81, "dir": 1, "rte_desc": "81-Kane\/257th", "dir_desc": "To Gresham Transit Center", "type": "BUS", "stop_seq": 1550, "stop_id": 10657, "stop_name": "NE Hood & 2nd", "jurisdic": "Gresham", "zipcode": "97030", "frequent": "False" }, "geometry": { "type": "Point", "coordinates": [ -122.42762496638312, 45.498868162961529 ] } },
{ "type": "Feature", "properties": { "rte": 81, "dir": 1, "rte_desc": "81-Kane\/257th", "dir_desc": "To Gresham Transit Center", "type": "BUS", "stop_seq": 1025, "stop_id": 10646, "stop_name": "SW 257th & 24th", "jurisdic": "Troutdale", "zipcode": "97060", "frequent": "False" }, "geometry": { "type": "Point", "coordinates": [ -122.39860849461738, 45.524138726796117 ] } },
{ "type": "Feature", "properties": { "rte": 81, "dir": 1, "rte_desc": "81-Kane\/257th", "dir_desc": "To Gresham Transit Center", "type": "BUS", "stop_seq": 1600, "stop_id": 10654, "stop_name": "NE Hood & 5th", "jurisdic": "Gresham", "zipcode": "97030", "frequent": "False" }, "geometry": { "type": "Point", "coordinates": [ -122.42792239405927, 45.500912591520034 ] } },
{ "type": "Feature", "properties": { "rte": 81, "dir": 1, "rte_desc": "81-Kane\/257th", "dir_desc": "To Gresham Transit Center", "type": "BUS", "stop_seq": 1240, "stop_id": 3106, "stop_name": "Kane & 8th", "jurisdic": "Gresham", "zipcode": "97030", "frequent": "False" }, "geometry": { "type": "Point", "coordinates": [ -122.40008262150207, 45.503154964656588 ] } },
{ "type": "Feature", "properties": { "rte": 81, "dir": 1, "rte_desc": "81-Kane\/257th", "dir_desc": "To Gresham Transit Center", "type": "BUS", "stop_seq": 1280, "stop_id": 3101, "stop_name": "SE Kane & 2nd", "jurisdic": "Gresham", "zipcode": "97080", "frequent": "False" }, "geometry": { "type": "Point", "coordinates": [ -122.39893043905727, 45.496160563525336 ] } },
{ "type": "Feature", "properties": { "rte": 81, "dir": 1, "rte_desc": "81-Kane\/257th", "dir_desc": "To Gresham Transit Center", "type": "BUS", "stop_seq": 1400, "stop_id": 4546, "stop_name": "E Powell & SE Rene", "jurisdic": "Gresham", "zipcode": "97080", "frequent": "False" }, "geometry": { "type": "Point", "coordinates": [ -122.40981915494544, 45.494567402277319 ] } },
{ "type": "Feature", "properties": { "rte": 81, "dir": 1, "rte_desc": "81-Kane\/257th", "dir_desc": "To Gresham Transit Center", "type": "BUS", "stop_seq": 1440, "stop_id": 4528, "stop_name": "E Powell & NE Hogan", "jurisdic": "Gresham", "zipcode": "97030", "frequent": "False" }, "geometry": { "type": "Point", "coordinates": [ -122.41377838848696, 45.497950708943371 ] } },
{ "type": "Feature", "properties": { "rte": 81, "dir": 1, "rte_desc": "81-Kane\/257th", "dir_desc": "To Gresham Transit Center", "type": "BUS", "stop_seq": 160, "stop_id": 9428, "stop_name": "SW 257th & Jennings Way", "jurisdic": "Troutdale", "zipcode": "97060", "frequent": "False" }, "geometry": { "type": "Point", "coordinates": [ -122.396726420322, 45.536049013056697 ] } },
{ "type": "Feature", "properties": { "rte": 81, "dir": 1, "rte_desc": "81-Kane\/257th", "dir_desc": "To Gresham Transit Center", "type": "BUS", "stop_seq": 1500, "stop_id": 4521, "stop_name": "E Powell & NE Cleveland", "jurisdic": "Gresham", "zipcode": "97030", "frequent": "False" }, "geometry": { "type": "Point", "coordinates": [ -122.42177655184315, 45.498150599032506 ] } },
{ "type": "Feature", "properties": { "rte": 81, "dir": 1, "rte_desc": "81-Kane\/257th", "dir_desc": "To Gresham Transit Center", "type": "BUS", "stop_seq": 155, "stop_id": 10171, "stop_name": "400 Block SW 257th", "jurisdic": "Troutdale", "zipcode": "97060", "frequent": "False" }, "geometry": { "type": "Point", "coordinates": [ -122.3927989194944, 45.538398476711926 ] } },
{ "type": "Feature", "properties": { "rte": 81, "dir": 1, "rte_desc": "81-Kane\/257th", "dir_desc": "To Gresham Transit Center", "type": "BUS", "stop_seq": 1200, "stop_id": 12952, "stop_name": "NE Kane & 15th", "jurisdic": "Gresham", "zipcode": "97030", "frequent": "False" }, "geometry": { "type": "Point", "coordinates": [ -122.40013321286972, 45.507865931860188 ] } },
{ "type": "Feature", "properties": { "rte": 81, "dir": 1, "rte_desc": "81-Kane\/257th", "dir_desc": "To Gresham Transit Center", "type": "BUS", "stop_seq": 300, "stop_id": 9103, "stop_name": "SW 257th & Cherry Park", "jurisdic": "Troutdale", "zipcode": "97060", "frequent": "False" }, "geometry": { "type": "Point", "coordinates": [ -122.39946651823917, 45.530113513981732 ] } },
{ "type": "Feature", "properties": { "rte": 81, "dir": 1, "rte_desc": "81-Kane\/257th", "dir_desc": "To Gresham Transit Center", "type": "BUS", "stop_seq": 1100, "stop_id": 13031, "stop_name": "NE Kane & SE Stark", "jurisdic": "Gresham", "zipcode": "97030", "frequent": "False" }, "geometry": { "type": "Point", "coordinates": [ -122.39860935994048, 45.518485997989657 ] } },
{ "type": "Feature", "properties": { "rte": 81, "dir": 1, "rte_desc": "81-Kane\/257th", "dir_desc": "To Gresham Transit Center", "type": "BUS", "stop_seq": 1120, "stop_id": 10878, "stop_name": "NE Kane & 29th (MHCC)", "jurisdic": "Gresham", "zipcode": "97030", "frequent": "False" }, "geometry": { "type": "Point", "coordinates": [ -122.39860825002364, 45.515937674949768 ] } },
{ "type": "Feature", "properties": { "rte": 81, "dir": 1, "rte_desc": "81-Kane\/257th", "dir_desc": "To Gresham Transit Center", "type": "BUS", "stop_seq": 200, "stop_id": 9101, "stop_name": "SW 257th & Sturges", "jurisdic": "Troutdale", "zipcode": "97060", "frequent": "False" }, "geometry": { "type": "Point", "coordinates": [ -122.39945116188703, 45.533704761086284 ] } },
{ "type": "Feature", "properties": { "rte": 81, "dir": 1, "rte_desc": "81-Kane\/257th", "dir_desc": "To Gresham Transit Center", "type": "BUS", "stop_seq": 1340, "stop_id": 4720, "stop_name": "SE Powell Valley & Robin", "jurisdic": "Gresham", "zipcode": "97080", "frequent": "False" }, "geometry": { "type": "Point", "coordinates": [ -122.40177601676223, 45.492898297069289 ] } },
{ "type": "Feature", "properties": { "rte": 81, "dir": 1, "rte_desc": "81-Kane\/257th", "dir_desc": "To Gresham Transit Center", "type": "BUS", "stop_seq": 1000, "stop_id": 8595, "stop_name": "SW 257th & Hensley Rd", "jurisdic": "Troutdale", "zipcode": "97060", "frequent": "False" }, "geometry": { "type": "Point", "coordinates": [ -122.39863396817778, 45.52583498177372 ] } },
{ "type": "Feature", "properties": { "rte": 81, "dir": 1, "rte_desc": "81-Kane\/257th", "dir_desc": "To Gresham Transit Center", "type": "BUS", "stop_seq": 1075, "stop_id": 8597, "stop_name": "SW 257th & 28th", "jurisdic": "Troutdale", "zipcode": "97060", "frequent": "False" }, "geometry": { "type": "Point", "coordinates": [ -122.39858942221576, 45.521304153702403 ] } },
{ "type": "Feature", "properties": { "rte": 81, "dir": 1, "rte_desc": "81-Kane\/257th", "dir_desc": "To Gresham Transit Center", "type": "BUS", "stop_seq": 1650, "stop_id": 10859, "stop_name": "Gresham Transit Center", "jurisdic": "Gresham", "zipcode": "97030", "frequent": "False" }, "geometry": { "type": "Point", "coordinates": [ -122.42684015281966, 45.503008446872194 ] } },
{ "type": "Feature", "properties": { "rte": 81, "dir": 1, "rte_desc": "81-Kane\/257th", "dir_desc": "To Gresham Transit Center", "type": "BUS", "stop_seq": 1260, "stop_id": 13468, "stop_name": "NE Kane & SE 1st", "jurisdic": "Gresham", "zipcode": "97030", "frequent": "False" }, "geometry": { "type": "Point", "coordinates": [ -122.39894613919986, 45.497777535261449 ] } },
{ "type": "Feature", "properties": { "rte": 81, "dir": 1, "rte_desc": "81-Kane\/257th", "dir_desc": "To Gresham Transit Center", "type": "BUS", "stop_seq": 1300, "stop_id": 13469, "stop_name": "SE Kane & 5th St", "jurisdic": "Gresham", "zipcode": "97080", "frequent": "False" }, "geometry": { "type": "Point", "coordinates": [ -122.39896342885649, 45.493776445777456 ] } },
{ "type": "Feature", "properties": { "rte": 81, "dir": 1, "rte_desc": "81-Kane\/257th", "dir_desc": "To Gresham Transit Center", "type": "BUS", "stop_seq": 1525, "stop_id": 13473, "stop_name": "E Powell & NE Elliott", "jurisdic": "Gresham", "zipcode": "97030", "frequent": "False" }, "geometry": { "type": "Point", "coordinates": [ -122.42448236169089, 45.498171806087889 ] } },
{ "type": "Feature", "properties": { "rte": 81, "dir": 1, "rte_desc": "81-Kane\/257th", "dir_desc": "To Gresham Transit Center", "type": "BUS", "stop_seq": 25, "stop_id": 13314, "stop_name": "Glenn Otto Park", "jurisdic": "Troutdale", "zipcode": "97060", "frequent": "False" }, "geometry": { "type": "Point", "coordinates": [ -122.3782448658267, 45.537292700058231 ] } },
{ "type": "Feature", "properties": { "rte": 81, "dir": 1, "rte_desc": "81-Kane\/257th", "dir_desc": "To Gresham Transit Center", "type": "BUS", "stop_seq": 1633, "stop_id": 13506, "stop_name": "Gresham Transit Center", "jurisdic": "Gresham", "zipcode": "97030", "frequent": "False" }, "geometry": { "type": "Point", "coordinates": [ -122.42772042672503, 45.502842852335476 ] } },
{ "type": "Feature", "properties": { "rte": 81, "dir": 1, "rte_desc": "81-Kane\/257th", "dir_desc": "To Gresham Transit Center", "type": "BUS", "stop_seq": 50, "stop_id": 13332, "stop_name": "E Columbia River Hwy & SE Jackson Park", "jurisdic": "Troutdale", "zipcode": "97060", "frequent": "False" }, "geometry": { "type": "Point", "coordinates": [ -122.38085601918337, 45.537256643331432 ] } },
{ "type": "Feature", "properties": { "rte": 81, "dir": 1, "rte_desc": "81-Kane\/257th", "dir_desc": "To Gresham Transit Center", "type": "BUS", "stop_seq": 100, "stop_id": 13315, "stop_name": "E Columbia River Hwy & SE Kibling", "jurisdic": "Troutdale", "zipcode": "97060", "frequent": "False" }, "geometry": { "type": "Point", "coordinates": [ -122.38511658363653, 45.540827216940166 ] } },
{ "type": "Feature", "properties": { "rte": 81, "dir": 1, "rte_desc": "81-Kane\/257th", "dir_desc": "To Gresham Transit Center", "type": "BUS", "stop_seq": 125, "stop_id": 13316, "stop_name": "W Columbia River Hwy & SW Kendall", "jurisdic": "Troutdale", "zipcode": "97060", "frequent": "False" }, "geometry": { "type": "Point", "coordinates": [ -122.38899149918014, 45.540833169292384 ] } }
]
}
