{
"type": "FeatureCollection",
"crs": { "type": "name", "properties": { "name": "urn:ogc:def:crs:OGC:1.3:CRS84" } },
"features": [
{ "type": "Feature", "properties": { "rte": 92, "dir": 0, "rte_desc": "92-South Beaverton Express", "dir_desc": "To Murrayhill", "type": "BUS", "stop_seq": 225, "stop_id": 1927, "stop_name": "SW Naito Parkway & Harrison", "jurisdic": "Portland", "zipcode": "97201", "frequent": "False" }, "geometry": { "type": "Point", "coordinates": [ -122.6769557661364, 45.509707544515294 ] } },
{ "type": "Feature", "properties": { "rte": 92, "dir": 0, "rte_desc": "92-South Beaverton Express", "dir_desc": "To Murrayhill", "type": "BUS", "stop_seq": 300, "stop_id": 5164, "stop_name": "SW Scholls Ferry & Cascade", "jurisdic": "Beaverton", "zipcode": "97008", "frequent": "False" }, "geometry": { "type": "Point", "coordinates": [ -122.78651520963291, 45.449516592588829 ] } },
{ "type": "Feature", "properties": { "rte": 92, "dir": 0, "rte_desc": "92-South Beaverton Express", "dir_desc": "To Murrayhill", "type": "BUS", "stop_seq": 350, "stop_id": 5189, "stop_name": "SW Scholls Ferry & Nimbus", "jurisdic": "Beaverton", "zipcode": "97008", "frequent": "False" }, "geometry": { "type": "Point", "coordinates": [ -122.79029738893122, 45.447205362263972 ] } },
{ "type": "Feature", "properties": { "rte": 92, "dir": 0, "rte_desc": "92-South Beaverton Express", "dir_desc": "To Murrayhill", "type": "BUS", "stop_seq": 450, "stop_id": 9159, "stop_name": "SW Conestoga & Boones Bend", "jurisdic": "Beaverton", "zipcode": "97008", "frequent": "False" }, "geometry": { "type": "Point", "coordinates": [ -122.79640285851248, 45.446276216065385 ] } },
{ "type": "Feature", "properties": { "rte": 92, "dir": 0, "rte_desc": "92-South Beaverton Express", "dir_desc": "To Murrayhill", "type": "BUS", "stop_seq": 550, "stop_id": 9161, "stop_name": "SW Conestoga & Downing", "jurisdic": "Beaverton", "zipcode": "97008", "frequent": "False" }, "geometry": { "type": "Point", "coordinates": [ -122.800814486908, 45.447981576451987 ] } },
{ "type": "Feature", "properties": { "rte": 92, "dir": 0, "rte_desc": "92-South Beaverton Express", "dir_desc": "To Murrayhill", "type": "BUS", "stop_seq": 600, "stop_id": 9162, "stop_name": "SW Conestoga & 125th", "jurisdic": "Beaverton", "zipcode": "97008", "frequent": "False" }, "geometry": { "type": "Point", "coordinates": [ -122.80520256872857, 45.447702299810125 ] } },
{ "type": "Feature", "properties": { "rte": 92, "dir": 0, "rte_desc": "92-South Beaverton Express", "dir_desc": "To Murrayhill", "type": "BUS", "stop_seq": 850, "stop_id": 9167, "stop_name": "SW Brockman & Davies", "jurisdic": "Beaverton", "zipcode": "97008", "frequent": "False" }, "geometry": { "type": "Point", "coordinates": [ -122.8207470138281, 45.454872056486323 ] } },
{ "type": "Feature", "properties": { "rte": 92, "dir": 0, "rte_desc": "92-South Beaverton Express", "dir_desc": "To Murrayhill", "type": "BUS", "stop_seq": 950, "stop_id": 8610, "stop_name": "SW Murray & Beard", "jurisdic": "Beaverton", "zipcode": "97008", "frequent": "False" }, "geometry": { "type": "Point", "coordinates": [ -122.82619440452602, 45.452736834295365 ] } },
{ "type": "Feature", "properties": { "rte": 92, "dir": 0, "rte_desc": "92-South Beaverton Express", "dir_desc": "To Murrayhill", "type": "BUS", "stop_seq": 1000, "stop_id": 8611, "stop_name": "SW Murray & Weir Rd", "jurisdic": "Beaverton", "zipcode": "97008", "frequent": "False" }, "geometry": { "type": "Point", "coordinates": [ -122.82614676113263, 45.447300041926461 ] } },
{ "type": "Feature", "properties": { "rte": 92, "dir": 0, "rte_desc": "92-South Beaverton Express", "dir_desc": "To Murrayhill", "type": "BUS", "stop_seq": 1200, "stop_id": 9170, "stop_name": "SW Teal & 152nd", "jurisdic": "Beaverton", "zipcode": "97007", "frequent": "False" }, "geometry": { "type": "Point", "coordinates": [ -122.83262439356152, 45.441747833694301 ] } },
{ "type": "Feature", "properties": { "rte": 92, "dir": 0, "rte_desc": "92-South Beaverton Express", "dir_desc": "To Murrayhill", "type": "BUS", "stop_seq": 1250, "stop_id": 9171, "stop_name": "SW Teal & 155th", "jurisdic": "Beaverton", "zipcode": "97007", "frequent": "False" }, "geometry": { "type": "Point", "coordinates": [ -122.83765471126479, 45.440950919765683 ] } },
{ "type": "Feature", "properties": { "rte": 92, "dir": 0, "rte_desc": "92-South Beaverton Express", "dir_desc": "To Murrayhill", "type": "BUS", "stop_seq": 1350, "stop_id": 9172, "stop_name": "SW Teal & Bobwhite Circle", "jurisdic": "Beaverton", "zipcode": "97007", "frequent": "False" }, "geometry": { "type": "Point", "coordinates": [ -122.83588691281327, 45.438281441665346 ] } },
{ "type": "Feature", "properties": { "rte": 92, "dir": 0, "rte_desc": "92-South Beaverton Express", "dir_desc": "To Murrayhill", "type": "BUS", "stop_seq": 1400, "stop_id": 9173, "stop_name": "SW Teal & Pintail", "jurisdic": "Beaverton", "zipcode": "97007", "frequent": "False" }, "geometry": { "type": "Point", "coordinates": [ -122.83351656556364, 45.436389963444945 ] } },
{ "type": "Feature", "properties": { "rte": 92, "dir": 0, "rte_desc": "92-South Beaverton Express", "dir_desc": "To Murrayhill", "type": "BUS", "stop_seq": 360, "stop_id": 9038, "stop_name": "SW Scholls Ferry & Springwood", "jurisdic": "Beaverton", "zipcode": "97008", "frequent": "False" }, "geometry": { "type": "Point", "coordinates": [ -122.79400725508818, 45.445760022980814 ] } },
{ "type": "Feature", "properties": { "rte": 92, "dir": 0, "rte_desc": "92-South Beaverton Express", "dir_desc": "To Murrayhill", "type": "BUS", "stop_seq": 500, "stop_id": 9160, "stop_name": "SW Conestoga & Welch", "jurisdic": "Beaverton", "zipcode": "97008", "frequent": "False" }, "geometry": { "type": "Point", "coordinates": [ -122.79718683546534, 45.448418509231153 ] } },
{ "type": "Feature", "properties": { "rte": 92, "dir": 0, "rte_desc": "92-South Beaverton Express", "dir_desc": "To Murrayhill", "type": "BUS", "stop_seq": 650, "stop_id": 9163, "stop_name": "SW 125th & Longhorn", "jurisdic": "Beaverton", "zipcode": "97008", "frequent": "False" }, "geometry": { "type": "Point", "coordinates": [ -122.80525053489687, 45.451060774979481 ] } },
{ "type": "Feature", "properties": { "rte": 92, "dir": 0, "rte_desc": "92-South Beaverton Express", "dir_desc": "To Murrayhill", "type": "BUS", "stop_seq": 800, "stop_id": 9166, "stop_name": "SW Brockman & 135th", "jurisdic": "Beaverton", "zipcode": "97008", "frequent": "False" }, "geometry": { "type": "Point", "coordinates": [ -122.81558158420482, 45.454873919533846 ] } },
{ "type": "Feature", "properties": { "rte": 92, "dir": 0, "rte_desc": "92-South Beaverton Express", "dir_desc": "To Murrayhill", "type": "BUS", "stop_seq": 1150, "stop_id": 9208, "stop_name": "14700 Block SW Teal", "jurisdic": "Beaverton", "zipcode": "97007", "frequent": "False" }, "geometry": { "type": "Point", "coordinates": [ -122.82824519873741, 45.440887033286558 ] } },
{ "type": "Feature", "properties": { "rte": 92, "dir": 0, "rte_desc": "92-South Beaverton Express", "dir_desc": "To Murrayhill", "type": "BUS", "stop_seq": 1300, "stop_id": 9215, "stop_name": "SW Teal & Nighthawk Dr", "jurisdic": "Beaverton", "zipcode": "97007", "frequent": "False" }, "geometry": { "type": "Point", "coordinates": [ -122.83761350898877, 45.439726249080074 ] } },
{ "type": "Feature", "properties": { "rte": 92, "dir": 0, "rte_desc": "92-South Beaverton Express", "dir_desc": "To Murrayhill", "type": "BUS", "stop_seq": 1450, "stop_id": 9174, "stop_name": "SW Scholls Ferry & Teal Blvd", "jurisdic": "Beaverton", "zipcode": "97007", "frequent": "False" }, "geometry": { "type": "Point", "coordinates": [ -122.83110561946783, 45.435404342052173 ] } },
{ "type": "Feature", "properties": { "rte": 92, "dir": 0, "rte_desc": "92-South Beaverton Express", "dir_desc": "To Murrayhill", "type": "BUS", "stop_seq": 125, "stop_id": 9044, "stop_name": "SW Columbia & 10th", "jurisdic": "Portland", "zipcode": "97201", "frequent": "False" }, "geometry": { "type": "Point", "coordinates": [ -122.68481811884172, 45.515326262005878 ] } },
{ "type": "Feature", "properties": { "rte": 92, "dir": 0, "rte_desc": "92-South Beaverton Express", "dir_desc": "To Murrayhill", "type": "BUS", "stop_seq": 150, "stop_id": 1108, "stop_name": "SW Columbia & Park Ave", "jurisdic": "Portland", "zipcode": "97201", "frequent": "False" }, "geometry": { "type": "Point", "coordinates": [ -122.6832475228893, 45.514918924833495 ] } },
{ "type": "Feature", "properties": { "rte": 92, "dir": 0, "rte_desc": "92-South Beaverton Express", "dir_desc": "To Murrayhill", "type": "BUS", "stop_seq": 175, "stop_id": 12794, "stop_name": "SW Columbia between 5th & 4th", "jurisdic": "Portland", "zipcode": "97201", "frequent": "False" }, "geometry": { "type": "Point", "coordinates": [ -122.67963438938783, 45.513954211827595 ] } },
{ "type": "Feature", "properties": { "rte": 92, "dir": 0, "rte_desc": "92-South Beaverton Express", "dir_desc": "To Murrayhill", "type": "BUS", "stop_seq": 200, "stop_id": 12795, "stop_name": "SW Columbia & 1st", "jurisdic": "Portland", "zipcode": "97201", "frequent": "False" }, "geometry": { "type": "Point", "coordinates": [ -122.67640236335455, 45.513088397849124 ] } },
{ "type": "Feature", "properties": { "rte": 92, "dir": 0, "rte_desc": "92-South Beaverton Express", "dir_desc": "To Murrayhill", "type": "BUS", "stop_seq": 250, "stop_id": 9169, "stop_name": "SW Scholls Ferry & Progress Park & Ride", "jurisdic": "Beaverton", "zipcode": "97008", "frequent": "False" }, "geometry": { "type": "Point", "coordinates": [ -122.78375781444427, 45.454743864551247 ] } },
{ "type": "Feature", "properties": { "rte": 92, "dir": 0, "rte_desc": "92-South Beaverton Express", "dir_desc": "To Murrayhill", "type": "BUS", "stop_seq": 900, "stop_id": 9168, "stop_name": "SW Brockman & Pony", "jurisdic": "Beaverton", "zipcode": "97008", "frequent": "False" }, "geometry": { "type": "Point", "coordinates": [ -122.82444929351013, 45.453110229458623 ] } },
{ "type": "Feature", "properties": { "rte": 92, "dir": 0, "rte_desc": "92-South Beaverton Express", "dir_desc": "To Murrayhill", "type": "BUS", "stop_seq": 1100, "stop_id": 8613, "stop_name": "SW Murray & Teal Blvd", "jurisdic": "Beaverton", "zipcode": "97007", "frequent": "False" }, "geometry": { "type": "Point", "coordinates": [ -122.82615735306183, 45.440966909958675 ] } },
{ "type": "Feature", "properties": { "rte": 92, "dir": 0, "rte_desc": "92-South Beaverton Express", "dir_desc": "To Murrayhill", "type": "BUS", "stop_seq": 700, "stop_id": 9164, "stop_name": "SW 125th & Footpath", "jurisdic": "Beaverton", "zipcode": "97008", "frequent": "False" }, "geometry": { "type": "Point", "coordinates": [ -122.80530248777271, 45.453037835767482 ] } },
{ "type": "Feature", "properties": { "rte": 92, "dir": 0, "rte_desc": "92-South Beaverton Express", "dir_desc": "To Murrayhill", "type": "BUS", "stop_seq": 1500, "stop_id": 9175, "stop_name": "SW Scholls Ferry & 147th", "jurisdic": "Beaverton", "zipcode": "97007", "frequent": "False" }, "geometry": { "type": "Point", "coordinates": [ -122.82819518898337, 45.436969802778499 ] } },
{ "type": "Feature", "properties": { "rte": 92, "dir": 0, "rte_desc": "92-South Beaverton Express", "dir_desc": "To Murrayhill", "type": "BUS", "stop_seq": 1050, "stop_id": 8612, "stop_name": "SW Murray & Osprey Dr", "jurisdic": "Beaverton", "zipcode": "97008", "frequent": "False" }, "geometry": { "type": "Point", "coordinates": [ -122.82614532941963, 45.443038711177579 ] } },
{ "type": "Feature", "properties": { "rte": 92, "dir": 0, "rte_desc": "92-South Beaverton Express", "dir_desc": "To Murrayhill", "type": "BUS", "stop_seq": 750, "stop_id": 9165, "stop_name": "SW Brockman & Sorrento", "jurisdic": "Beaverton", "zipcode": "97008", "frequent": "False" }, "geometry": { "type": "Point", "coordinates": [ -122.80848752191723, 45.454878988318868 ] } },
{ "type": "Feature", "properties": { "rte": 92, "dir": 1, "rte_desc": "92-South Beaverton Express", "dir_desc": "To Portland City Center", "type": "BUS", "stop_seq": 50, "stop_id": 9170, "stop_name": "SW Teal & 152nd", "jurisdic": "Beaverton", "zipcode": "97007", "frequent": "False" }, "geometry": { "type": "Point", "coordinates": [ -122.83262439356152, 45.441747833694301 ] } },
{ "type": "Feature", "properties": { "rte": 92, "dir": 1, "rte_desc": "92-South Beaverton Express", "dir_desc": "To Portland City Center", "type": "BUS", "stop_seq": 125, "stop_id": 9215, "stop_name": "SW Teal & Nighthawk Dr", "jurisdic": "Beaverton", "zipcode": "97007", "frequent": "False" }, "geometry": { "type": "Point", "coordinates": [ -122.83761350898877, 45.439726249080074 ] } },
{ "type": "Feature", "properties": { "rte": 92, "dir": 1, "rte_desc": "92-South Beaverton Express", "dir_desc": "To Portland City Center", "type": "BUS", "stop_seq": 150, "stop_id": 9172, "stop_name": "SW Teal & Bobwhite Circle", "jurisdic": "Beaverton", "zipcode": "97007", "frequent": "False" }, "geometry": { "type": "Point", "coordinates": [ -122.83588691281327, 45.438281441665346 ] } },
{ "type": "Feature", "properties": { "rte": 92, "dir": 1, "rte_desc": "92-South Beaverton Express", "dir_desc": "To Portland City Center", "type": "BUS", "stop_seq": 200, "stop_id": 9174, "stop_name": "SW Scholls Ferry & Teal Blvd", "jurisdic": "Beaverton", "zipcode": "97007", "frequent": "False" }, "geometry": { "type": "Point", "coordinates": [ -122.83110561946783, 45.435404342052173 ] } },
{ "type": "Feature", "properties": { "rte": 92, "dir": 1, "rte_desc": "92-South Beaverton Express", "dir_desc": "To Portland City Center", "type": "BUS", "stop_seq": 350, "stop_id": 8625, "stop_name": "SW Murray & Teal Blvd", "jurisdic": "Beaverton", "zipcode": "97008", "frequent": "False" }, "geometry": { "type": "Point", "coordinates": [ -122.82575836600661, 45.440381772941116 ] } },
{ "type": "Feature", "properties": { "rte": 92, "dir": 1, "rte_desc": "92-South Beaverton Express", "dir_desc": "To Portland City Center", "type": "BUS", "stop_seq": 400, "stop_id": 8626, "stop_name": "SW Murray & Osprey Dr", "jurisdic": "Beaverton", "zipcode": "97008", "frequent": "False" }, "geometry": { "type": "Point", "coordinates": [ -122.82579910981688, 45.44318695702583 ] } },
{ "type": "Feature", "properties": { "rte": 92, "dir": 1, "rte_desc": "92-South Beaverton Express", "dir_desc": "To Portland City Center", "type": "BUS", "stop_seq": 450, "stop_id": 8627, "stop_name": "SW Murray & Weir Rd", "jurisdic": "Beaverton", "zipcode": "97008", "frequent": "False" }, "geometry": { "type": "Point", "coordinates": [ -122.82583606978281, 45.447904220428782 ] } },
{ "type": "Feature", "properties": { "rte": 92, "dir": 1, "rte_desc": "92-South Beaverton Express", "dir_desc": "To Portland City Center", "type": "BUS", "stop_seq": 500, "stop_id": 8628, "stop_name": "SW Brockman & Stallion", "jurisdic": "Beaverton", "zipcode": "97008", "frequent": "False" }, "geometry": { "type": "Point", "coordinates": [ -122.82454679049935, 45.452965184076888 ] } },
{ "type": "Feature", "properties": { "rte": 92, "dir": 1, "rte_desc": "92-South Beaverton Express", "dir_desc": "To Portland City Center", "type": "BUS", "stop_seq": 650, "stop_id": 9178, "stop_name": "SW Brockman & Sorrento", "jurisdic": "Beaverton", "zipcode": "97008", "frequent": "False" }, "geometry": { "type": "Point", "coordinates": [ -122.80762328868137, 45.454733958582651 ] } },
{ "type": "Feature", "properties": { "rte": 92, "dir": 1, "rte_desc": "92-South Beaverton Express", "dir_desc": "To Portland City Center", "type": "BUS", "stop_seq": 700, "stop_id": 9179, "stop_name": "SW 125th & Footpath", "jurisdic": "Beaverton", "zipcode": "97008", "frequent": "False" }, "geometry": { "type": "Point", "coordinates": [ -122.80548422553527, 45.452679121931851 ] } },
{ "type": "Feature", "properties": { "rte": 92, "dir": 1, "rte_desc": "92-South Beaverton Express", "dir_desc": "To Portland City Center", "type": "BUS", "stop_seq": 750, "stop_id": 9180, "stop_name": "9600 Block SW 125th", "jurisdic": "Beaverton", "zipcode": "97008", "frequent": "False" }, "geometry": { "type": "Point", "coordinates": [ -122.80559505771247, 45.450028548263383 ] } },
{ "type": "Feature", "properties": { "rte": 92, "dir": 1, "rte_desc": "92-South Beaverton Express", "dir_desc": "To Portland City Center", "type": "BUS", "stop_seq": 800, "stop_id": 9181, "stop_name": "SW Conestoga & 125th", "jurisdic": "Beaverton", "zipcode": "97008", "frequent": "False" }, "geometry": { "type": "Point", "coordinates": [ -122.80425860957659, 45.447576465562946 ] } },
{ "type": "Feature", "properties": { "rte": 92, "dir": 1, "rte_desc": "92-South Beaverton Express", "dir_desc": "To Portland City Center", "type": "BUS", "stop_seq": 900, "stop_id": 9183, "stop_name": "SW Conestoga & Trapper Terrace", "jurisdic": "Beaverton", "zipcode": "97008", "frequent": "False" }, "geometry": { "type": "Point", "coordinates": [ -122.79826034773086, 45.448407905313452 ] } },
{ "type": "Feature", "properties": { "rte": 92, "dir": 1, "rte_desc": "92-South Beaverton Express", "dir_desc": "To Portland City Center", "type": "BUS", "stop_seq": 1000, "stop_id": 5197, "stop_name": "SW Scholls Ferry & Springwood", "jurisdic": "Tigard", "zipcode": "97008", "frequent": "False" }, "geometry": { "type": "Point", "coordinates": [ -122.79306762806966, 45.445815460538512 ] } },
{ "type": "Feature", "properties": { "rte": 92, "dir": 1, "rte_desc": "92-South Beaverton Express", "dir_desc": "To Portland City Center", "type": "BUS", "stop_seq": 1050, "stop_id": 5190, "stop_name": "SW Scholls Ferry & Nimbus", "jurisdic": "Tigard", "zipcode": "97223", "frequent": "False" }, "geometry": { "type": "Point", "coordinates": [ -122.78902865884963, 45.447459777972313 ] } },
{ "type": "Feature", "properties": { "rte": 92, "dir": 1, "rte_desc": "92-South Beaverton Express", "dir_desc": "To Portland City Center", "type": "BUS", "stop_seq": 100, "stop_id": 9171, "stop_name": "SW Teal & 155th", "jurisdic": "Beaverton", "zipcode": "97007", "frequent": "False" }, "geometry": { "type": "Point", "coordinates": [ -122.83765471126479, 45.440950919765683 ] } },
{ "type": "Feature", "properties": { "rte": 92, "dir": 1, "rte_desc": "92-South Beaverton Express", "dir_desc": "To Portland City Center", "type": "BUS", "stop_seq": 175, "stop_id": 9173, "stop_name": "SW Teal & Pintail", "jurisdic": "Beaverton", "zipcode": "97007", "frequent": "False" }, "geometry": { "type": "Point", "coordinates": [ -122.83351656556364, 45.436389963444945 ] } },
{ "type": "Feature", "properties": { "rte": 92, "dir": 1, "rte_desc": "92-South Beaverton Express", "dir_desc": "To Portland City Center", "type": "BUS", "stop_seq": 250, "stop_id": 9175, "stop_name": "SW Scholls Ferry & 147th", "jurisdic": "Beaverton", "zipcode": "97007", "frequent": "False" }, "geometry": { "type": "Point", "coordinates": [ -122.82819518898337, 45.436969802778499 ] } },
{ "type": "Feature", "properties": { "rte": 92, "dir": 1, "rte_desc": "92-South Beaverton Express", "dir_desc": "To Portland City Center", "type": "BUS", "stop_seq": 1200, "stop_id": 12789, "stop_name": "SW Jefferson & 1st", "jurisdic": "Portland", "zipcode": "97204", "frequent": "False" }, "geometry": { "type": "Point", "coordinates": [ -122.67559976074199, 45.513746096543336 ] } },
{ "type": "Feature", "properties": { "rte": 92, "dir": 1, "rte_desc": "92-South Beaverton Express", "dir_desc": "To Portland City Center", "type": "BUS", "stop_seq": 1250, "stop_id": 12790, "stop_name": "SW Jefferson between 4th & 5th", "jurisdic": "Portland", "zipcode": "97204", "frequent": "False" }, "geometry": { "type": "Point", "coordinates": [ -122.67916660598728, 45.51470370266626 ] } },
{ "type": "Feature", "properties": { "rte": 92, "dir": 1, "rte_desc": "92-South Beaverton Express", "dir_desc": "To Portland City Center", "type": "BUS", "stop_seq": 1300, "stop_id": 3039, "stop_name": "SW Jefferson & Broadway", "jurisdic": "Portland", "zipcode": "97204", "frequent": "False" }, "geometry": { "type": "Point", "coordinates": [ -122.68159251203015, 45.515365868427992 ] } },
{ "type": "Feature", "properties": { "rte": 92, "dir": 1, "rte_desc": "92-South Beaverton Express", "dir_desc": "To Portland City Center", "type": "BUS", "stop_seq": 1350, "stop_id": 3049, "stop_name": "SW Jefferson & 10th", "jurisdic": "Portland", "zipcode": "97205", "frequent": "False" }, "geometry": { "type": "Point", "coordinates": [ -122.68376350724294, 45.515944445951909 ] } },
{ "type": "Feature", "properties": { "rte": 92, "dir": 1, "rte_desc": "92-South Beaverton Express", "dir_desc": "To Portland City Center", "type": "BUS", "stop_seq": 25, "stop_id": 9208, "stop_name": "14700 Block SW Teal", "jurisdic": "Beaverton", "zipcode": "97007", "frequent": "False" }, "geometry": { "type": "Point", "coordinates": [ -122.82824519873741, 45.440887033286558 ] } },
{ "type": "Feature", "properties": { "rte": 92, "dir": 1, "rte_desc": "92-South Beaverton Express", "dir_desc": "To Portland City Center", "type": "BUS", "stop_seq": 475, "stop_id": 12746, "stop_name": "SW Murray & Brockman", "jurisdic": "Beaverton", "zipcode": "97008", "frequent": "False" }, "geometry": { "type": "Point", "coordinates": [ -122.82584047049215, 45.45263180470667 ] } },
{ "type": "Feature", "properties": { "rte": 92, "dir": 1, "rte_desc": "92-South Beaverton Express", "dir_desc": "To Portland City Center", "type": "BUS", "stop_seq": 550, "stop_id": 9176, "stop_name": "SW Brockman & Davies", "jurisdic": "Beaverton", "zipcode": "97008", "frequent": "False" }, "geometry": { "type": "Point", "coordinates": [ -122.82023131292486, 45.454743770407937 ] } },
{ "type": "Feature", "properties": { "rte": 92, "dir": 1, "rte_desc": "92-South Beaverton Express", "dir_desc": "To Portland City Center", "type": "BUS", "stop_seq": 850, "stop_id": 9182, "stop_name": "SW Conestoga & Downing", "jurisdic": "Beaverton", "zipcode": "97008", "frequent": "False" }, "geometry": { "type": "Point", "coordinates": [ -122.80068843104685, 45.447872854353086 ] } },
{ "type": "Feature", "properties": { "rte": 92, "dir": 1, "rte_desc": "92-South Beaverton Express", "dir_desc": "To Portland City Center", "type": "BUS", "stop_seq": 1150, "stop_id": 9185, "stop_name": "SW Scholls Ferry & Progress Park & Ride", "jurisdic": "Beaverton", "zipcode": "97223", "frequent": "False" }, "geometry": { "type": "Point", "coordinates": [ -122.78295545334043, 45.455495418479458 ] } },
{ "type": "Feature", "properties": { "rte": 92, "dir": 1, "rte_desc": "92-South Beaverton Express", "dir_desc": "To Portland City Center", "type": "BUS", "stop_seq": 600, "stop_id": 9177, "stop_name": "SW Brockman & 135th", "jurisdic": "Beaverton", "zipcode": "97008", "frequent": "False" }, "geometry": { "type": "Point", "coordinates": [ -122.81541210128442, 45.454734765293303 ] } },
{ "type": "Feature", "properties": { "rte": 92, "dir": 1, "rte_desc": "92-South Beaverton Express", "dir_desc": "To Portland City Center", "type": "BUS", "stop_seq": 1160, "stop_id": 1926, "stop_name": "SW Naito Parkway & Harrison", "jurisdic": "Portland", "zipcode": "97201", "frequent": "False" }, "geometry": { "type": "Point", "coordinates": [ -122.67687521213135, 45.509278640851221 ] } },
{ "type": "Feature", "properties": { "rte": 92, "dir": 1, "rte_desc": "92-South Beaverton Express", "dir_desc": "To Portland City Center", "type": "BUS", "stop_seq": 950, "stop_id": 9184, "stop_name": "SW Conestoga & Boones Bend", "jurisdic": "Beaverton", "zipcode": "97008", "frequent": "False" }, "geometry": { "type": "Point", "coordinates": [ -122.79651518195747, 45.446159305228619 ] } }
]
}
