{
"type": "FeatureCollection",
"crs": { "type": "name", "properties": { "name": "urn:ogc:def:crs:OGC:1.3:CRS84" } },
"features": [
{ "type": "Feature", "properties": { "rte": 50, "dir": 0, "rte_desc": "50-Cedar Mill", "dir_desc": "Evening Loop", "type": "BUS", "stop_seq": 825, "stop_id": 13586, "stop_name": "NW Cornell & 118th", "jurisdic": "Beaverton", "zipcode": "97229", "frequent": "False" }, "geometry": { "type": "Point", "coordinates": [ -122.79743926000641, 45.526901333892418 ] } },
{ "type": "Feature", "properties": { "rte": 50, "dir": 0, "rte_desc": "50-Cedar Mill", "dir_desc": "Evening Loop", "type": "BUS", "stop_seq": 2275, "stop_id": 13465, "stop_name": "NW Cornell & 118th", "jurisdic": "Beaverton", "zipcode": "97229", "frequent": "False" }, "geometry": { "type": "Point", "coordinates": [ -122.79706627573431, 45.526776118944142 ] } },
{ "type": "Feature", "properties": { "rte": 50, "dir": 0, "rte_desc": "50-Cedar Mill", "dir_desc": "Evening Loop", "type": "BUS", "stop_seq": 225, "stop_id": 13311, "stop_name": "SW Taylor & Selba Terrace", "jurisdic": "Washington Co.", "zipcode": "97225", "frequent": "False" }, "geometry": { "type": "Point", "coordinates": [ -122.77781578270421, 45.515918397449695 ] } },
{ "type": "Feature", "properties": { "rte": 50, "dir": 0, "rte_desc": "50-Cedar Mill", "dir_desc": "Evening Loop", "type": "BUS", "stop_seq": 100, "stop_id": 13260, "stop_name": "SW Valeria View & Barnes", "jurisdic": "Beaverton", "zipcode": "97225", "frequent": "False" }, "geometry": { "type": "Point", "coordinates": [ -122.78751822247904, 45.514414359066869 ] } },
{ "type": "Feature", "properties": { "rte": 50, "dir": 0, "rte_desc": "50-Cedar Mill", "dir_desc": "Evening Loop", "type": "BUS", "stop_seq": 150, "stop_id": 13261, "stop_name": "SW Taylor & Windwood Way", "jurisdic": "Washington Co.", "zipcode": "97225", "frequent": "False" }, "geometry": { "type": "Point", "coordinates": [ -122.78475751068541, 45.515598423218734 ] } },
{ "type": "Feature", "properties": { "rte": 50, "dir": 0, "rte_desc": "50-Cedar Mill", "dir_desc": "Evening Loop", "type": "BUS", "stop_seq": 200, "stop_id": 13262, "stop_name": "SW Taylor & Morrison", "jurisdic": "Washington Co.", "zipcode": "97225", "frequent": "False" }, "geometry": { "type": "Point", "coordinates": [ -122.78071769945645, 45.515936847258054 ] } },
{ "type": "Feature", "properties": { "rte": 50, "dir": 0, "rte_desc": "50-Cedar Mill", "dir_desc": "Evening Loop", "type": "BUS", "stop_seq": 250, "stop_id": 13263, "stop_name": "9300 Block SW Taylor", "jurisdic": "Washington Co.", "zipcode": "97225", "frequent": "False" }, "geometry": { "type": "Point", "coordinates": [ -122.7730964980659, 45.5159197183619 ] } },
{ "type": "Feature", "properties": { "rte": 50, "dir": 0, "rte_desc": "50-Cedar Mill", "dir_desc": "Evening Loop", "type": "BUS", "stop_seq": 300, "stop_id": 13264, "stop_name": "SW Taylor & 90th", "jurisdic": "Washington Co.", "zipcode": "97225", "frequent": "False" }, "geometry": { "type": "Point", "coordinates": [ -122.76970456001995, 45.515893637799124 ] } },
{ "type": "Feature", "properties": { "rte": 50, "dir": 0, "rte_desc": "50-Cedar Mill", "dir_desc": "Evening Loop", "type": "BUS", "stop_seq": 350, "stop_id": 8105, "stop_name": "NW 90th & W Stark", "jurisdic": "Washington Co.", "zipcode": "97229", "frequent": "False" }, "geometry": { "type": "Point", "coordinates": [ -122.76951143887604, 45.519623468506857 ] } },
{ "type": "Feature", "properties": { "rte": 50, "dir": 0, "rte_desc": "50-Cedar Mill", "dir_desc": "Evening Loop", "type": "BUS", "stop_seq": 400, "stop_id": 13265, "stop_name": "NW Leahy & Oak", "jurisdic": "Washington Co.", "zipcode": "97229", "frequent": "False" }, "geometry": { "type": "Point", "coordinates": [ -122.76959960921408, 45.520995445755887 ] } },
{ "type": "Feature", "properties": { "rte": 50, "dir": 0, "rte_desc": "50-Cedar Mill", "dir_desc": "Evening Loop", "type": "BUS", "stop_seq": 450, "stop_id": 8961, "stop_name": "NW Leahy & Leahy Terrace", "jurisdic": "Washington Co.", "zipcode": "97229", "frequent": "False" }, "geometry": { "type": "Point", "coordinates": [ -122.77229346289793, 45.523091945585008 ] } },
{ "type": "Feature", "properties": { "rte": 50, "dir": 0, "rte_desc": "50-Cedar Mill", "dir_desc": "Evening Loop", "type": "BUS", "stop_seq": 500, "stop_id": 13266, "stop_name": "NW Leahy & Trillium Hollow", "jurisdic": "Washington Co.", "zipcode": "97229", "frequent": "False" }, "geometry": { "type": "Point", "coordinates": [ -122.77625305677073, 45.523240319001573 ] } },
{ "type": "Feature", "properties": { "rte": 50, "dir": 0, "rte_desc": "50-Cedar Mill", "dir_desc": "Evening Loop", "type": "BUS", "stop_seq": 550, "stop_id": 3379, "stop_name": "NW Leahy & 101st", "jurisdic": "Washington Co.", "zipcode": "97229", "frequent": "False" }, "geometry": { "type": "Point", "coordinates": [ -122.78077338785576, 45.523203717142849 ] } },
{ "type": "Feature", "properties": { "rte": 50, "dir": 0, "rte_desc": "50-Cedar Mill", "dir_desc": "Evening Loop", "type": "BUS", "stop_seq": 600, "stop_id": 3376, "stop_name": "NW Leahy & Alpenglow Way", "jurisdic": "Washington Co.", "zipcode": "97229", "frequent": "False" }, "geometry": { "type": "Point", "coordinates": [ -122.7846824973722, 45.523212813331419 ] } },
{ "type": "Feature", "properties": { "rte": 50, "dir": 0, "rte_desc": "50-Cedar Mill", "dir_desc": "Evening Loop", "type": "BUS", "stop_seq": 650, "stop_id": 6539, "stop_name": "NW 107th & Walters", "jurisdic": "Washington Co.", "zipcode": "97229", "frequent": "False" }, "geometry": { "type": "Point", "coordinates": [ -122.78701527171033, 45.524102275028362 ] } },
{ "type": "Feature", "properties": { "rte": 50, "dir": 0, "rte_desc": "50-Cedar Mill", "dir_desc": "Evening Loop", "type": "BUS", "stop_seq": 750, "stop_id": 1195, "stop_name": "NW Cornell & 110th", "jurisdic": "Washington Co.", "zipcode": "97229", "frequent": "False" }, "geometry": { "type": "Point", "coordinates": [ -122.78961318228055, 45.526209432108999 ] } },
{ "type": "Feature", "properties": { "rte": 50, "dir": 0, "rte_desc": "50-Cedar Mill", "dir_desc": "Evening Loop", "type": "BUS", "stop_seq": 800, "stop_id": 1199, "stop_name": "NW Cornell & 113th", "jurisdic": "Beaverton", "zipcode": "97229", "frequent": "False" }, "geometry": { "type": "Point", "coordinates": [ -122.79349786713493, 45.526599713776747 ] } },
{ "type": "Feature", "properties": { "rte": 50, "dir": 0, "rte_desc": "50-Cedar Mill", "dir_desc": "Evening Loop", "type": "BUS", "stop_seq": 850, "stop_id": 1201, "stop_name": "NW Cornell & 119th", "jurisdic": "Beaverton", "zipcode": "97229", "frequent": "False" }, "geometry": { "type": "Point", "coordinates": [ -122.79952549988498, 45.527061611694165 ] } },
{ "type": "Feature", "properties": { "rte": 50, "dir": 0, "rte_desc": "50-Cedar Mill", "dir_desc": "Evening Loop", "type": "BUS", "stop_seq": 900, "stop_id": 1203, "stop_name": "NW Cornell & 123rd", "jurisdic": "Washington Co.", "zipcode": "97229", "frequent": "False" }, "geometry": { "type": "Point", "coordinates": [ -122.80455497718444, 45.525971392241857 ] } },
{ "type": "Feature", "properties": { "rte": 50, "dir": 0, "rte_desc": "50-Cedar Mill", "dir_desc": "Evening Loop", "type": "BUS", "stop_seq": 950, "stop_id": 13267, "stop_name": "NW Saltzman & Dogwood", "jurisdic": "Washington Co.", "zipcode": "97229", "frequent": "False" }, "geometry": { "type": "Point", "coordinates": [ -122.80647157486679, 45.527153548842307 ] } },
{ "type": "Feature", "properties": { "rte": 50, "dir": 0, "rte_desc": "50-Cedar Mill", "dir_desc": "Evening Loop", "type": "BUS", "stop_seq": 1000, "stop_id": 13268, "stop_name": "NW Saltzman & Westlawn Terrace", "jurisdic": "Washington Co.", "zipcode": "97229", "frequent": "False" }, "geometry": { "type": "Point", "coordinates": [ -122.80673998245929, 45.529104585345962 ] } },
{ "type": "Feature", "properties": { "rte": 50, "dir": 0, "rte_desc": "50-Cedar Mill", "dir_desc": "Evening Loop", "type": "BUS", "stop_seq": 1050, "stop_id": 13269, "stop_name": "NW Saltzman & Marshall", "jurisdic": "Washington Co.", "zipcode": "97229", "frequent": "False" }, "geometry": { "type": "Point", "coordinates": [ -122.80670206243343, 45.530916450843272 ] } },
{ "type": "Feature", "properties": { "rte": 50, "dir": 0, "rte_desc": "50-Cedar Mill", "dir_desc": "Evening Loop", "type": "BUS", "stop_seq": 1100, "stop_id": 13270, "stop_name": "NW Saltzman & Coleman", "jurisdic": "Washington Co.", "zipcode": "97229", "frequent": "False" }, "geometry": { "type": "Point", "coordinates": [ -122.80694313827259, 45.532874694798203 ] } },
{ "type": "Feature", "properties": { "rte": 50, "dir": 0, "rte_desc": "50-Cedar Mill", "dir_desc": "Evening Loop", "type": "BUS", "stop_seq": 1150, "stop_id": 13271, "stop_name": "NW Saltzman & 128th", "jurisdic": "Washington Co.", "zipcode": "97229", "frequent": "False" }, "geometry": { "type": "Point", "coordinates": [ -122.80896412093873, 45.534218209929648 ] } },
{ "type": "Feature", "properties": { "rte": 50, "dir": 0, "rte_desc": "50-Cedar Mill", "dir_desc": "Evening Loop", "type": "BUS", "stop_seq": 1200, "stop_id": 13272, "stop_name": "NW Saltzman & Burton", "jurisdic": "Washington Co.", "zipcode": "97229", "frequent": "False" }, "geometry": { "type": "Point", "coordinates": [ -122.81194401980058, 45.537400107296904 ] } },
{ "type": "Feature", "properties": { "rte": 50, "dir": 0, "rte_desc": "50-Cedar Mill", "dir_desc": "Evening Loop", "type": "BUS", "stop_seq": 1250, "stop_id": 13273, "stop_name": "NW Saltzman & Bauer Woods", "jurisdic": "Washington Co.", "zipcode": "97229", "frequent": "False" }, "geometry": { "type": "Point", "coordinates": [ -122.81076256389295, 45.53910835710019 ] } },
{ "type": "Feature", "properties": { "rte": 50, "dir": 0, "rte_desc": "50-Cedar Mill", "dir_desc": "Evening Loop", "type": "BUS", "stop_seq": 1300, "stop_id": 13274, "stop_name": "NW Saltzman & Creekside", "jurisdic": "Washington Co.", "zipcode": "97229", "frequent": "False" }, "geometry": { "type": "Point", "coordinates": [ -122.81036310815324, 45.542647448075236 ] } },
{ "type": "Feature", "properties": { "rte": 50, "dir": 0, "rte_desc": "50-Cedar Mill", "dir_desc": "Evening Loop", "type": "BUS", "stop_seq": 1450, "stop_id": 13276, "stop_name": "NW Thompson & 126th", "jurisdic": "Washington Co.", "zipcode": "97229", "frequent": "False" }, "geometry": { "type": "Point", "coordinates": [ -122.80716246569104, 45.548563618689393 ] } },
{ "type": "Feature", "properties": { "rte": 50, "dir": 0, "rte_desc": "50-Cedar Mill", "dir_desc": "Evening Loop", "type": "BUS", "stop_seq": 1500, "stop_id": 13277, "stop_name": "NW Thompson & 120th", "jurisdic": "Washington Co.", "zipcode": "97229", "frequent": "False" }, "geometry": { "type": "Point", "coordinates": [ -122.80014627709619, 45.548076335908945 ] } },
{ "type": "Feature", "properties": { "rte": 50, "dir": 0, "rte_desc": "50-Cedar Mill", "dir_desc": "Evening Loop", "type": "BUS", "stop_seq": 1550, "stop_id": 13278, "stop_name": "NW Thompson & Permian", "jurisdic": "Washington Co.", "zipcode": "97229", "frequent": "False" }, "geometry": { "type": "Point", "coordinates": [ -122.79449906132712, 45.547669139379174 ] } },
{ "type": "Feature", "properties": { "rte": 50, "dir": 0, "rte_desc": "50-Cedar Mill", "dir_desc": "Evening Loop", "type": "BUS", "stop_seq": 1600, "stop_id": 13279, "stop_name": "NW Thompson & Gerritz", "jurisdic": "Washington Co.", "zipcode": "97229", "frequent": "False" }, "geometry": { "type": "Point", "coordinates": [ -122.78998340388166, 45.545894819633183 ] } },
{ "type": "Feature", "properties": { "rte": 50, "dir": 0, "rte_desc": "50-Cedar Mill", "dir_desc": "Evening Loop", "type": "BUS", "stop_seq": 1650, "stop_id": 13280, "stop_name": "NW Thompson & McDaniel", "jurisdic": "Multnomah Co.", "zipcode": "97229", "frequent": "False" }, "geometry": { "type": "Point", "coordinates": [ -122.78431059618282, 45.544834324865846 ] } },
{ "type": "Feature", "properties": { "rte": 50, "dir": 0, "rte_desc": "50-Cedar Mill", "dir_desc": "Evening Loop", "type": "BUS", "stop_seq": 1700, "stop_id": 13281, "stop_name": "NW McDaniel & 111th Ct", "jurisdic": "Washington Co.", "zipcode": "97229", "frequent": "False" }, "geometry": { "type": "Point", "coordinates": [ -122.79087849249473, 45.53976784316005 ] } },
{ "type": "Feature", "properties": { "rte": 50, "dir": 0, "rte_desc": "50-Cedar Mill", "dir_desc": "Evening Loop", "type": "BUS", "stop_seq": 1750, "stop_id": 13282, "stop_name": "NW McDaniel & Blackhawk", "jurisdic": "Washington Co.", "zipcode": "97229", "frequent": "False" }, "geometry": { "type": "Point", "coordinates": [ -122.79266722733803, 45.53981234316317 ] } },
{ "type": "Feature", "properties": { "rte": 50, "dir": 0, "rte_desc": "50-Cedar Mill", "dir_desc": "Evening Loop", "type": "BUS", "stop_seq": 1800, "stop_id": 13283, "stop_name": "11800 Block NW McDaniel", "jurisdic": "Washington Co.", "zipcode": "97229", "frequent": "False" }, "geometry": { "type": "Point", "coordinates": [ -122.79823311436168, 45.538656317229027 ] } },
{ "type": "Feature", "properties": { "rte": 50, "dir": 0, "rte_desc": "50-Cedar Mill", "dir_desc": "Evening Loop", "type": "BUS", "stop_seq": 1850, "stop_id": 13284, "stop_name": "NW 119th & Kathleen Dr", "jurisdic": "Washington Co.", "zipcode": "97229", "frequent": "False" }, "geometry": { "type": "Point", "coordinates": [ -122.79961164693994, 45.537245013766842 ] } },
{ "type": "Feature", "properties": { "rte": 50, "dir": 0, "rte_desc": "50-Cedar Mill", "dir_desc": "Evening Loop", "type": "BUS", "stop_seq": 1900, "stop_id": 13285, "stop_name": "NW 119th & Maple Hill", "jurisdic": "Washington Co.", "zipcode": "97229", "frequent": "False" }, "geometry": { "type": "Point", "coordinates": [ -122.79961170813147, 45.535962509663165 ] } },
{ "type": "Feature", "properties": { "rte": 50, "dir": 0, "rte_desc": "50-Cedar Mill", "dir_desc": "Evening Loop", "type": "BUS", "stop_seq": 1950, "stop_id": 13286, "stop_name": "NW 119th & Old Quarry", "jurisdic": "Washington Co.", "zipcode": "97229", "frequent": "False" }, "geometry": { "type": "Point", "coordinates": [ -122.79959122203742, 45.535143667972235 ] } },
{ "type": "Feature", "properties": { "rte": 50, "dir": 0, "rte_desc": "50-Cedar Mill", "dir_desc": "Evening Loop", "type": "BUS", "stop_seq": 2000, "stop_id": 13287, "stop_name": "NW 119th & Sunningdale", "jurisdic": "Washington Co.", "zipcode": "97229", "frequent": "False" }, "geometry": { "type": "Point", "coordinates": [ -122.79961062090611, 45.534394599974881 ] } },
{ "type": "Feature", "properties": { "rte": 50, "dir": 0, "rte_desc": "50-Cedar Mill", "dir_desc": "Evening Loop", "type": "BUS", "stop_seq": 2050, "stop_id": 13288, "stop_name": "NW 119th & Coleman", "jurisdic": "Washington Co.", "zipcode": "97229", "frequent": "False" }, "geometry": { "type": "Point", "coordinates": [ -122.79963740810133, 45.533282278499435 ] } },
{ "type": "Feature", "properties": { "rte": 50, "dir": 0, "rte_desc": "50-Cedar Mill", "dir_desc": "Evening Loop", "type": "BUS", "stop_seq": 2100, "stop_id": 13289, "stop_name": "NW 119th & Vallevue", "jurisdic": "Washington Co.", "zipcode": "97229", "frequent": "False" }, "geometry": { "type": "Point", "coordinates": [ -122.79967110635516, 45.531437211139178 ] } },
{ "type": "Feature", "properties": { "rte": 50, "dir": 0, "rte_desc": "50-Cedar Mill", "dir_desc": "Evening Loop", "type": "BUS", "stop_seq": 2150, "stop_id": 13290, "stop_name": "NW 119th & Lovejoy", "jurisdic": "Washington Co.", "zipcode": "97229", "frequent": "False" }, "geometry": { "type": "Point", "coordinates": [ -122.79972078518028, 45.530239482638251 ] } },
{ "type": "Feature", "properties": { "rte": 50, "dir": 0, "rte_desc": "50-Cedar Mill", "dir_desc": "Evening Loop", "type": "BUS", "stop_seq": 2200, "stop_id": 13291, "stop_name": "NW 119th & Kearney", "jurisdic": "Washington Co.", "zipcode": "97229", "frequent": "False" }, "geometry": { "type": "Point", "coordinates": [ -122.79972583918919, 45.529480808252693 ] } },
{ "type": "Feature", "properties": { "rte": 50, "dir": 0, "rte_desc": "50-Cedar Mill", "dir_desc": "Evening Loop", "type": "BUS", "stop_seq": 2250, "stop_id": 13292, "stop_name": "NW 119th & Reeves", "jurisdic": "Washington Co.", "zipcode": "97229", "frequent": "False" }, "geometry": { "type": "Point", "coordinates": [ -122.79976373358203, 45.527603828068258 ] } },
{ "type": "Feature", "properties": { "rte": 50, "dir": 0, "rte_desc": "50-Cedar Mill", "dir_desc": "Evening Loop", "type": "BUS", "stop_seq": 2300, "stop_id": 10152, "stop_name": "NW Cedar Hills & Leahy", "jurisdic": "Beaverton", "zipcode": "97229", "frequent": "False" }, "geometry": { "type": "Point", "coordinates": [ -122.79288457675985, 45.522620709389429 ] } },
{ "type": "Feature", "properties": { "rte": 50, "dir": 0, "rte_desc": "50-Cedar Mill", "dir_desc": "Evening Loop", "type": "BUS", "stop_seq": 2350, "stop_id": 10749, "stop_name": "SW Cedar Hills & Celeste", "jurisdic": "Beaverton", "zipcode": "97225", "frequent": "False" }, "geometry": { "type": "Point", "coordinates": [ -122.79157293687085, 45.518836491443899 ] } },
{ "type": "Feature", "properties": { "rte": 50, "dir": 0, "rte_desc": "50-Cedar Mill", "dir_desc": "Evening Loop", "type": "BUS", "stop_seq": 2400, "stop_id": 9627, "stop_name": "SW Barnes & Cedar Hills Blvd", "jurisdic": "Beaverton", "zipcode": "97225", "frequent": "False" }, "geometry": { "type": "Point", "coordinates": [ -122.78972453266759, 45.515220099324672 ] } },
{ "type": "Feature", "properties": { "rte": 50, "dir": 0, "rte_desc": "50-Cedar Mill", "dir_desc": "Evening Loop", "type": "BUS", "stop_seq": 2450, "stop_id": 13259, "stop_name": "SW Barnes & Valeria View", "jurisdic": "Beaverton", "zipcode": "97225", "frequent": "False" }, "geometry": { "type": "Point", "coordinates": [ -122.78843225356695, 45.513757755270092 ] } },
{ "type": "Feature", "properties": { "rte": 50, "dir": 0, "rte_desc": "50-Cedar Mill", "dir_desc": "Evening Loop", "type": "BUS", "stop_seq": 1350, "stop_id": 13275, "stop_name": "NW Saltzman & Hartford", "jurisdic": "Washington Co.", "zipcode": "97229", "frequent": "False" }, "geometry": { "type": "Point", "coordinates": [ -122.81040151375625, 45.544476512405033 ] } },
{ "type": "Feature", "properties": { "rte": 50, "dir": 0, "rte_desc": "50-Cedar Mill", "dir_desc": "Evening Loop", "type": "BUS", "stop_seq": 1675, "stop_id": 13455, "stop_name": "NW McDaniel & Harding Ct", "jurisdic": "Washington Co.", "zipcode": "97229", "frequent": "False" }, "geometry": { "type": "Point", "coordinates": [ -122.78941414168588, 45.540175244057643 ] } },
{ "type": "Feature", "properties": { "rte": 50, "dir": 0, "rte_desc": "50-Cedar Mill", "dir_desc": "Evening Loop", "type": "BUS", "stop_seq": 700, "stop_id": 6537, "stop_name": "NW 107th & Cornell", "jurisdic": "Washington Co.", "zipcode": "97229", "frequent": "False" }, "geometry": { "type": "Point", "coordinates": [ -122.7870585729663, 45.525574117579382 ] } },
{ "type": "Feature", "properties": { "rte": 50, "dir": 0, "rte_desc": "50-Cedar Mill", "dir_desc": "Evening Loop", "type": "BUS", "stop_seq": 1400, "stop_id": 13243, "stop_name": "NW Saltzman & Thompson", "jurisdic": "Washington Co.", "zipcode": "97229", "frequent": "False" }, "geometry": { "type": "Point", "coordinates": [ -122.81049912707836, 45.548174451052304 ] } },
{ "type": "Feature", "properties": { "rte": 50, "dir": 0, "rte_desc": "50-Cedar Mill", "dir_desc": "Evening Loop", "type": "BUS", "stop_seq": 50, "stop_id": 9971, "stop_name": "Sunset Transit Center", "jurisdic": "Beaverton", "zipcode": "97225", "frequent": "False" }, "geometry": { "type": "Point", "coordinates": [ -122.78108426541401, 45.509902999936614 ] } },
{ "type": "Feature", "properties": { "rte": 50, "dir": 0, "rte_desc": "50-Cedar Mill", "dir_desc": "Evening Loop", "type": "BUS", "stop_seq": 2550, "stop_id": 9971, "stop_name": "Sunset Transit Center", "jurisdic": "Beaverton", "zipcode": "97225", "frequent": "False" }, "geometry": { "type": "Point", "coordinates": [ -122.78108426541401, 45.509902999936614 ] } },
{ "type": "Feature", "properties": { "rte": 50, "dir": 1, "rte_desc": "50-Cedar Mill", "dir_desc": "Morning Loop", "type": "BUS", "stop_seq": 275, "stop_id": 13586, "stop_name": "NW Cornell & 118th", "jurisdic": "Beaverton", "zipcode": "97229", "frequent": "False" }, "geometry": { "type": "Point", "coordinates": [ -122.79743926000641, 45.526901333892418 ] } },
{ "type": "Feature", "properties": { "rte": 50, "dir": 1, "rte_desc": "50-Cedar Mill", "dir_desc": "Morning Loop", "type": "BUS", "stop_seq": 1725, "stop_id": 13465, "stop_name": "NW Cornell & 118th", "jurisdic": "Beaverton", "zipcode": "97229", "frequent": "False" }, "geometry": { "type": "Point", "coordinates": [ -122.79706627573431, 45.526776118944142 ] } },
{ "type": "Feature", "properties": { "rte": 50, "dir": 1, "rte_desc": "50-Cedar Mill", "dir_desc": "Morning Loop", "type": "BUS", "stop_seq": 2325, "stop_id": 13310, "stop_name": "SW Taylor & Selba Terrace", "jurisdic": "Washington Co.", "zipcode": "97225", "frequent": "False" }, "geometry": { "type": "Point", "coordinates": [ -122.77780051400224, 45.516011628697584 ] } },
{ "type": "Feature", "properties": { "rte": 50, "dir": 1, "rte_desc": "50-Cedar Mill", "dir_desc": "Morning Loop", "type": "BUS", "stop_seq": 100, "stop_id": 9628, "stop_name": "SW Barnes & Cedar Hills Blvd", "jurisdic": "Beaverton", "zipcode": "97225", "frequent": "False" }, "geometry": { "type": "Point", "coordinates": [ -122.78969112515566, 45.515539105889992 ] } },
{ "type": "Feature", "properties": { "rte": 50, "dir": 1, "rte_desc": "50-Cedar Mill", "dir_desc": "Morning Loop", "type": "BUS", "stop_seq": 150, "stop_id": 10761, "stop_name": "SW Cedar Hills & Celeste", "jurisdic": "Beaverton", "zipcode": "97225", "frequent": "False" }, "geometry": { "type": "Point", "coordinates": [ -122.79133318371838, 45.518829379766657 ] } },
{ "type": "Feature", "properties": { "rte": 50, "dir": 1, "rte_desc": "50-Cedar Mill", "dir_desc": "Morning Loop", "type": "BUS", "stop_seq": 200, "stop_id": 9158, "stop_name": "NW Cedar Hills & Leahy", "jurisdic": "Beaverton", "zipcode": "97229", "frequent": "False" }, "geometry": { "type": "Point", "coordinates": [ -122.79264101685791, 45.523108914117898 ] } },
{ "type": "Feature", "properties": { "rte": 50, "dir": 1, "rte_desc": "50-Cedar Mill", "dir_desc": "Morning Loop", "type": "BUS", "stop_seq": 250, "stop_id": 1199, "stop_name": "NW Cornell & 113th", "jurisdic": "Beaverton", "zipcode": "97229", "frequent": "False" }, "geometry": { "type": "Point", "coordinates": [ -122.79349786713493, 45.526599713776747 ] } },
{ "type": "Feature", "properties": { "rte": 50, "dir": 1, "rte_desc": "50-Cedar Mill", "dir_desc": "Morning Loop", "type": "BUS", "stop_seq": 300, "stop_id": 1201, "stop_name": "NW Cornell & 119th", "jurisdic": "Beaverton", "zipcode": "97229", "frequent": "False" }, "geometry": { "type": "Point", "coordinates": [ -122.79952549988498, 45.527061611694165 ] } },
{ "type": "Feature", "properties": { "rte": 50, "dir": 1, "rte_desc": "50-Cedar Mill", "dir_desc": "Morning Loop", "type": "BUS", "stop_seq": 350, "stop_id": 1203, "stop_name": "NW Cornell & 123rd", "jurisdic": "Washington Co.", "zipcode": "97229", "frequent": "False" }, "geometry": { "type": "Point", "coordinates": [ -122.80455497718444, 45.525971392241857 ] } },
{ "type": "Feature", "properties": { "rte": 50, "dir": 1, "rte_desc": "50-Cedar Mill", "dir_desc": "Morning Loop", "type": "BUS", "stop_seq": 400, "stop_id": 13267, "stop_name": "NW Saltzman & Dogwood", "jurisdic": "Washington Co.", "zipcode": "97229", "frequent": "False" }, "geometry": { "type": "Point", "coordinates": [ -122.80647157486679, 45.527153548842307 ] } },
{ "type": "Feature", "properties": { "rte": 50, "dir": 1, "rte_desc": "50-Cedar Mill", "dir_desc": "Morning Loop", "type": "BUS", "stop_seq": 450, "stop_id": 13268, "stop_name": "NW Saltzman & Westlawn Terrace", "jurisdic": "Washington Co.", "zipcode": "97229", "frequent": "False" }, "geometry": { "type": "Point", "coordinates": [ -122.80673998245929, 45.529104585345962 ] } },
{ "type": "Feature", "properties": { "rte": 50, "dir": 1, "rte_desc": "50-Cedar Mill", "dir_desc": "Morning Loop", "type": "BUS", "stop_seq": 500, "stop_id": 13269, "stop_name": "NW Saltzman & Marshall", "jurisdic": "Washington Co.", "zipcode": "97229", "frequent": "False" }, "geometry": { "type": "Point", "coordinates": [ -122.80670206243343, 45.530916450843272 ] } },
{ "type": "Feature", "properties": { "rte": 50, "dir": 1, "rte_desc": "50-Cedar Mill", "dir_desc": "Morning Loop", "type": "BUS", "stop_seq": 550, "stop_id": 13270, "stop_name": "NW Saltzman & Coleman", "jurisdic": "Washington Co.", "zipcode": "97229", "frequent": "False" }, "geometry": { "type": "Point", "coordinates": [ -122.80694313827259, 45.532874694798203 ] } },
{ "type": "Feature", "properties": { "rte": 50, "dir": 1, "rte_desc": "50-Cedar Mill", "dir_desc": "Morning Loop", "type": "BUS", "stop_seq": 600, "stop_id": 13271, "stop_name": "NW Saltzman & 128th", "jurisdic": "Washington Co.", "zipcode": "97229", "frequent": "False" }, "geometry": { "type": "Point", "coordinates": [ -122.80896412093873, 45.534218209929648 ] } },
{ "type": "Feature", "properties": { "rte": 50, "dir": 1, "rte_desc": "50-Cedar Mill", "dir_desc": "Morning Loop", "type": "BUS", "stop_seq": 650, "stop_id": 13272, "stop_name": "NW Saltzman & Burton", "jurisdic": "Washington Co.", "zipcode": "97229", "frequent": "False" }, "geometry": { "type": "Point", "coordinates": [ -122.81194401980058, 45.537400107296904 ] } },
{ "type": "Feature", "properties": { "rte": 50, "dir": 1, "rte_desc": "50-Cedar Mill", "dir_desc": "Morning Loop", "type": "BUS", "stop_seq": 700, "stop_id": 13273, "stop_name": "NW Saltzman & Bauer Woods", "jurisdic": "Washington Co.", "zipcode": "97229", "frequent": "False" }, "geometry": { "type": "Point", "coordinates": [ -122.81076256389295, 45.53910835710019 ] } },
{ "type": "Feature", "properties": { "rte": 50, "dir": 1, "rte_desc": "50-Cedar Mill", "dir_desc": "Morning Loop", "type": "BUS", "stop_seq": 750, "stop_id": 13274, "stop_name": "NW Saltzman & Creekside", "jurisdic": "Washington Co.", "zipcode": "97229", "frequent": "False" }, "geometry": { "type": "Point", "coordinates": [ -122.81036310815324, 45.542647448075236 ] } },
{ "type": "Feature", "properties": { "rte": 50, "dir": 1, "rte_desc": "50-Cedar Mill", "dir_desc": "Morning Loop", "type": "BUS", "stop_seq": 800, "stop_id": 13275, "stop_name": "NW Saltzman & Hartford", "jurisdic": "Washington Co.", "zipcode": "97229", "frequent": "False" }, "geometry": { "type": "Point", "coordinates": [ -122.81040151375625, 45.544476512405033 ] } },
{ "type": "Feature", "properties": { "rte": 50, "dir": 1, "rte_desc": "50-Cedar Mill", "dir_desc": "Morning Loop", "type": "BUS", "stop_seq": 900, "stop_id": 13276, "stop_name": "NW Thompson & 126th", "jurisdic": "Washington Co.", "zipcode": "97229", "frequent": "False" }, "geometry": { "type": "Point", "coordinates": [ -122.80716246569104, 45.548563618689393 ] } },
{ "type": "Feature", "properties": { "rte": 50, "dir": 1, "rte_desc": "50-Cedar Mill", "dir_desc": "Morning Loop", "type": "BUS", "stop_seq": 950, "stop_id": 13277, "stop_name": "NW Thompson & 120th", "jurisdic": "Washington Co.", "zipcode": "97229", "frequent": "False" }, "geometry": { "type": "Point", "coordinates": [ -122.80014627709619, 45.548076335908945 ] } },
{ "type": "Feature", "properties": { "rte": 50, "dir": 1, "rte_desc": "50-Cedar Mill", "dir_desc": "Morning Loop", "type": "BUS", "stop_seq": 1000, "stop_id": 13278, "stop_name": "NW Thompson & Permian", "jurisdic": "Washington Co.", "zipcode": "97229", "frequent": "False" }, "geometry": { "type": "Point", "coordinates": [ -122.79449906132712, 45.547669139379174 ] } },
{ "type": "Feature", "properties": { "rte": 50, "dir": 1, "rte_desc": "50-Cedar Mill", "dir_desc": "Morning Loop", "type": "BUS", "stop_seq": 1050, "stop_id": 13279, "stop_name": "NW Thompson & Gerritz", "jurisdic": "Washington Co.", "zipcode": "97229", "frequent": "False" }, "geometry": { "type": "Point", "coordinates": [ -122.78998340388166, 45.545894819633183 ] } },
{ "type": "Feature", "properties": { "rte": 50, "dir": 1, "rte_desc": "50-Cedar Mill", "dir_desc": "Morning Loop", "type": "BUS", "stop_seq": 1100, "stop_id": 13280, "stop_name": "NW Thompson & McDaniel", "jurisdic": "Multnomah Co.", "zipcode": "97229", "frequent": "False" }, "geometry": { "type": "Point", "coordinates": [ -122.78431059618282, 45.544834324865846 ] } },
{ "type": "Feature", "properties": { "rte": 50, "dir": 1, "rte_desc": "50-Cedar Mill", "dir_desc": "Morning Loop", "type": "BUS", "stop_seq": 1150, "stop_id": 13281, "stop_name": "NW McDaniel & 111th Ct", "jurisdic": "Washington Co.", "zipcode": "97229", "frequent": "False" }, "geometry": { "type": "Point", "coordinates": [ -122.79087849249473, 45.53976784316005 ] } },
{ "type": "Feature", "properties": { "rte": 50, "dir": 1, "rte_desc": "50-Cedar Mill", "dir_desc": "Morning Loop", "type": "BUS", "stop_seq": 1200, "stop_id": 13282, "stop_name": "NW McDaniel & Blackhawk", "jurisdic": "Washington Co.", "zipcode": "97229", "frequent": "False" }, "geometry": { "type": "Point", "coordinates": [ -122.79266722733803, 45.53981234316317 ] } },
{ "type": "Feature", "properties": { "rte": 50, "dir": 1, "rte_desc": "50-Cedar Mill", "dir_desc": "Morning Loop", "type": "BUS", "stop_seq": 1250, "stop_id": 13283, "stop_name": "11800 Block NW McDaniel", "jurisdic": "Washington Co.", "zipcode": "97229", "frequent": "False" }, "geometry": { "type": "Point", "coordinates": [ -122.79823311436168, 45.538656317229027 ] } },
{ "type": "Feature", "properties": { "rte": 50, "dir": 1, "rte_desc": "50-Cedar Mill", "dir_desc": "Morning Loop", "type": "BUS", "stop_seq": 1300, "stop_id": 13284, "stop_name": "NW 119th & Kathleen Dr", "jurisdic": "Washington Co.", "zipcode": "97229", "frequent": "False" }, "geometry": { "type": "Point", "coordinates": [ -122.79961164693994, 45.537245013766842 ] } },
{ "type": "Feature", "properties": { "rte": 50, "dir": 1, "rte_desc": "50-Cedar Mill", "dir_desc": "Morning Loop", "type": "BUS", "stop_seq": 1350, "stop_id": 13285, "stop_name": "NW 119th & Maple Hill", "jurisdic": "Washington Co.", "zipcode": "97229", "frequent": "False" }, "geometry": { "type": "Point", "coordinates": [ -122.79961170813147, 45.535962509663165 ] } },
{ "type": "Feature", "properties": { "rte": 50, "dir": 1, "rte_desc": "50-Cedar Mill", "dir_desc": "Morning Loop", "type": "BUS", "stop_seq": 1400, "stop_id": 13286, "stop_name": "NW 119th & Old Quarry", "jurisdic": "Washington Co.", "zipcode": "97229", "frequent": "False" }, "geometry": { "type": "Point", "coordinates": [ -122.79959122203742, 45.535143667972235 ] } },
{ "type": "Feature", "properties": { "rte": 50, "dir": 1, "rte_desc": "50-Cedar Mill", "dir_desc": "Morning Loop", "type": "BUS", "stop_seq": 1450, "stop_id": 13287, "stop_name": "NW 119th & Sunningdale", "jurisdic": "Washington Co.", "zipcode": "97229", "frequent": "False" }, "geometry": { "type": "Point", "coordinates": [ -122.79961062090611, 45.534394599974881 ] } },
{ "type": "Feature", "properties": { "rte": 50, "dir": 1, "rte_desc": "50-Cedar Mill", "dir_desc": "Morning Loop", "type": "BUS", "stop_seq": 1500, "stop_id": 13288, "stop_name": "NW 119th & Coleman", "jurisdic": "Washington Co.", "zipcode": "97229", "frequent": "False" }, "geometry": { "type": "Point", "coordinates": [ -122.79963740810133, 45.533282278499435 ] } },
{ "type": "Feature", "properties": { "rte": 50, "dir": 1, "rte_desc": "50-Cedar Mill", "dir_desc": "Morning Loop", "type": "BUS", "stop_seq": 1550, "stop_id": 13289, "stop_name": "NW 119th & Vallevue", "jurisdic": "Washington Co.", "zipcode": "97229", "frequent": "False" }, "geometry": { "type": "Point", "coordinates": [ -122.79967110635516, 45.531437211139178 ] } },
{ "type": "Feature", "properties": { "rte": 50, "dir": 1, "rte_desc": "50-Cedar Mill", "dir_desc": "Morning Loop", "type": "BUS", "stop_seq": 1600, "stop_id": 13290, "stop_name": "NW 119th & Lovejoy", "jurisdic": "Washington Co.", "zipcode": "97229", "frequent": "False" }, "geometry": { "type": "Point", "coordinates": [ -122.79972078518028, 45.530239482638251 ] } },
{ "type": "Feature", "properties": { "rte": 50, "dir": 1, "rte_desc": "50-Cedar Mill", "dir_desc": "Morning Loop", "type": "BUS", "stop_seq": 1650, "stop_id": 13291, "stop_name": "NW 119th & Kearney", "jurisdic": "Washington Co.", "zipcode": "97229", "frequent": "False" }, "geometry": { "type": "Point", "coordinates": [ -122.79972583918919, 45.529480808252693 ] } },
{ "type": "Feature", "properties": { "rte": 50, "dir": 1, "rte_desc": "50-Cedar Mill", "dir_desc": "Morning Loop", "type": "BUS", "stop_seq": 1700, "stop_id": 13292, "stop_name": "NW 119th & Reeves", "jurisdic": "Washington Co.", "zipcode": "97229", "frequent": "False" }, "geometry": { "type": "Point", "coordinates": [ -122.79976373358203, 45.527603828068258 ] } },
{ "type": "Feature", "properties": { "rte": 50, "dir": 1, "rte_desc": "50-Cedar Mill", "dir_desc": "Morning Loop", "type": "BUS", "stop_seq": 1750, "stop_id": 1194, "stop_name": "NW Cornell & 110th", "jurisdic": "Washington Co.", "zipcode": "97229", "frequent": "False" }, "geometry": { "type": "Point", "coordinates": [ -122.79008664628344, 45.526166091558217 ] } },
{ "type": "Feature", "properties": { "rte": 50, "dir": 1, "rte_desc": "50-Cedar Mill", "dir_desc": "Morning Loop", "type": "BUS", "stop_seq": 1850, "stop_id": 6535, "stop_name": "NW 107th & Copeland", "jurisdic": "Washington Co.", "zipcode": "97229", "frequent": "False" }, "geometry": { "type": "Point", "coordinates": [ -122.78717149935731, 45.524076980411458 ] } },
{ "type": "Feature", "properties": { "rte": 50, "dir": 1, "rte_desc": "50-Cedar Mill", "dir_desc": "Morning Loop", "type": "BUS", "stop_seq": 1900, "stop_id": 10442, "stop_name": "NW Leahy & Alpenglow Way", "jurisdic": "Washington Co.", "zipcode": "97229", "frequent": "False" }, "geometry": { "type": "Point", "coordinates": [ -122.78395455498045, 45.523074082387744 ] } },
{ "type": "Feature", "properties": { "rte": 50, "dir": 1, "rte_desc": "50-Cedar Mill", "dir_desc": "Morning Loop", "type": "BUS", "stop_seq": 1950, "stop_id": 3378, "stop_name": "NW Leahy & 101st", "jurisdic": "Washington Co.", "zipcode": "97229", "frequent": "False" }, "geometry": { "type": "Point", "coordinates": [ -122.78072647703637, 45.523093858171286 ] } },
{ "type": "Feature", "properties": { "rte": 50, "dir": 1, "rte_desc": "50-Cedar Mill", "dir_desc": "Morning Loop", "type": "BUS", "stop_seq": 2000, "stop_id": 3385, "stop_name": "NW Leahy & 97th", "jurisdic": "Washington Co.", "zipcode": "97229", "frequent": "False" }, "geometry": { "type": "Point", "coordinates": [ -122.77679183538167, 45.523092201188547 ] } },
{ "type": "Feature", "properties": { "rte": 50, "dir": 1, "rte_desc": "50-Cedar Mill", "dir_desc": "Morning Loop", "type": "BUS", "stop_seq": 2050, "stop_id": 3383, "stop_name": "NW Leahy & 95th", "jurisdic": "Washington Co.", "zipcode": "97229", "frequent": "False" }, "geometry": { "type": "Point", "coordinates": [ -122.77484699405808, 45.523100565018851 ] } },
{ "type": "Feature", "properties": { "rte": 50, "dir": 1, "rte_desc": "50-Cedar Mill", "dir_desc": "Morning Loop", "type": "BUS", "stop_seq": 2100, "stop_id": 8962, "stop_name": "NW Leahy & Leahy Terrace", "jurisdic": "Washington Co.", "zipcode": "97229", "frequent": "False" }, "geometry": { "type": "Point", "coordinates": [ -122.77257017004722, 45.523087682691326 ] } },
{ "type": "Feature", "properties": { "rte": 50, "dir": 1, "rte_desc": "50-Cedar Mill", "dir_desc": "Morning Loop", "type": "BUS", "stop_seq": 2150, "stop_id": 3377, "stop_name": "NW Leahy & Oak", "jurisdic": "Washington Co.", "zipcode": "97229", "frequent": "False" }, "geometry": { "type": "Point", "coordinates": [ -122.7701566024826, 45.520917795275899 ] } },
{ "type": "Feature", "properties": { "rte": 50, "dir": 1, "rte_desc": "50-Cedar Mill", "dir_desc": "Morning Loop", "type": "BUS", "stop_seq": 2200, "stop_id": 8108, "stop_name": "SW 90th & Washington", "jurisdic": "Washington Co.", "zipcode": "97225", "frequent": "False" }, "geometry": { "type": "Point", "coordinates": [ -122.7697298369708, 45.51868354732779 ] } },
{ "type": "Feature", "properties": { "rte": 50, "dir": 1, "rte_desc": "50-Cedar Mill", "dir_desc": "Morning Loop", "type": "BUS", "stop_seq": 2250, "stop_id": 8106, "stop_name": "SW 90th & Taylor", "jurisdic": "Washington Co.", "zipcode": "97225", "frequent": "False" }, "geometry": { "type": "Point", "coordinates": [ -122.76969563870884, 45.516021637623972 ] } },
{ "type": "Feature", "properties": { "rte": 50, "dir": 1, "rte_desc": "50-Cedar Mill", "dir_desc": "Morning Loop", "type": "BUS", "stop_seq": 2300, "stop_id": 13256, "stop_name": "9300 Block SW Taylor", "jurisdic": "Washington Co.", "zipcode": "97225", "frequent": "False" }, "geometry": { "type": "Point", "coordinates": [ -122.77354072089986, 45.51603194141066 ] } },
{ "type": "Feature", "properties": { "rte": 50, "dir": 1, "rte_desc": "50-Cedar Mill", "dir_desc": "Morning Loop", "type": "BUS", "stop_seq": 2350, "stop_id": 13257, "stop_name": "SW Taylor & Morrison", "jurisdic": "Washington Co.", "zipcode": "97225", "frequent": "False" }, "geometry": { "type": "Point", "coordinates": [ -122.78120421200869, 45.515979764284353 ] } },
{ "type": "Feature", "properties": { "rte": 50, "dir": 1, "rte_desc": "50-Cedar Mill", "dir_desc": "Morning Loop", "type": "BUS", "stop_seq": 2400, "stop_id": 13258, "stop_name": "SW Taylor & Valeria View", "jurisdic": "Beaverton", "zipcode": "97225", "frequent": "False" }, "geometry": { "type": "Point", "coordinates": [ -122.78613311508613, 45.515953771900129 ] } },
{ "type": "Feature", "properties": { "rte": 50, "dir": 1, "rte_desc": "50-Cedar Mill", "dir_desc": "Morning Loop", "type": "BUS", "stop_seq": 2450, "stop_id": 13259, "stop_name": "SW Barnes & Valeria View", "jurisdic": "Beaverton", "zipcode": "97225", "frequent": "False" }, "geometry": { "type": "Point", "coordinates": [ -122.78843225356695, 45.513757755270092 ] } },
{ "type": "Feature", "properties": { "rte": 50, "dir": 1, "rte_desc": "50-Cedar Mill", "dir_desc": "Morning Loop", "type": "BUS", "stop_seq": 1125, "stop_id": 13455, "stop_name": "NW McDaniel & Harding Ct", "jurisdic": "Washington Co.", "zipcode": "97229", "frequent": "False" }, "geometry": { "type": "Point", "coordinates": [ -122.78941414168588, 45.540175244057643 ] } },
{ "type": "Feature", "properties": { "rte": 50, "dir": 1, "rte_desc": "50-Cedar Mill", "dir_desc": "Morning Loop", "type": "BUS", "stop_seq": 850, "stop_id": 13243, "stop_name": "NW Saltzman & Thompson", "jurisdic": "Washington Co.", "zipcode": "97229", "frequent": "False" }, "geometry": { "type": "Point", "coordinates": [ -122.81049912707836, 45.548174451052304 ] } },
{ "type": "Feature", "properties": { "rte": 50, "dir": 1, "rte_desc": "50-Cedar Mill", "dir_desc": "Morning Loop", "type": "BUS", "stop_seq": 1800, "stop_id": 6536, "stop_name": "NW Cornell & 107th", "jurisdic": "Washington Co.", "zipcode": "97229", "frequent": "False" }, "geometry": { "type": "Point", "coordinates": [ -122.7872954000231, 45.525823950319804 ] } },
{ "type": "Feature", "properties": { "rte": 50, "dir": 1, "rte_desc": "50-Cedar Mill", "dir_desc": "Morning Loop", "type": "BUS", "stop_seq": 50, "stop_id": 9971, "stop_name": "Sunset Transit Center", "jurisdic": "Beaverton", "zipcode": "97225", "frequent": "False" }, "geometry": { "type": "Point", "coordinates": [ -122.78108426541401, 45.509902999936614 ] } },
{ "type": "Feature", "properties": { "rte": 50, "dir": 1, "rte_desc": "50-Cedar Mill", "dir_desc": "Morning Loop", "type": "BUS", "stop_seq": 2550, "stop_id": 9971, "stop_name": "Sunset Transit Center", "jurisdic": "Beaverton", "zipcode": "97225", "frequent": "False" }, "geometry": { "type": "Point", "coordinates": [ -122.78108426541401, 45.509902999936614 ] } }
]
}
