{
"type": "FeatureCollection",
"crs": { "type": "name", "properties": { "name": "urn:ogc:def:crs:OGC:1.3:CRS84" } },
"features": [
{ "type": "Feature", "properties": { "rte": 88, "dir": 0, "rte_desc": "88-Hart\/198th", "dir_desc": "To Willow Creek\/SW 185th Ave Transit Center", "type": "BUS", "stop_seq": 50, "stop_id": 9983, "stop_name": "Beaverton Transit Center", "jurisdic": "Beaverton", "zipcode": "97005", "frequent": "False" }, "geometry": { "type": "Point", "coordinates": [ -122.80143502339661, 45.491246671419788 ] } },
{ "type": "Feature", "properties": { "rte": 88, "dir": 0, "rte_desc": "88-Hart\/198th", "dir_desc": "To Willow Creek\/SW 185th Ave Transit Center", "type": "BUS", "stop_seq": 200, "stop_id": 8491, "stop_name": "SW Lombard & 2nd", "jurisdic": "Beaverton", "zipcode": "97005", "frequent": "False" }, "geometry": { "type": "Point", "coordinates": [ -122.80039562208762, 45.485277455062139 ] } },
{ "type": "Feature", "properties": { "rte": 88, "dir": 0, "rte_desc": "88-Hart\/198th", "dir_desc": "To Willow Creek\/SW 185th Ave Transit Center", "type": "BUS", "stop_seq": 350, "stop_id": 3454, "stop_name": "SW Lombard & Allen", "jurisdic": "Beaverton", "zipcode": "97005", "frequent": "False" }, "geometry": { "type": "Point", "coordinates": [ -122.80040038607821, 45.476721902987897 ] } },
{ "type": "Feature", "properties": { "rte": 88, "dir": 0, "rte_desc": "88-Hart\/198th", "dir_desc": "To Willow Creek\/SW 185th Ave Transit Center", "type": "BUS", "stop_seq": 450, "stop_id": 103, "stop_name": "SW Allen & Hall", "jurisdic": "Beaverton", "zipcode": "97005", "frequent": "False" }, "geometry": { "type": "Point", "coordinates": [ -122.80524275095112, 45.476553902371428 ] } },
{ "type": "Feature", "properties": { "rte": 88, "dir": 0, "rte_desc": "88-Hart\/198th", "dir_desc": "To Willow Creek\/SW 185th Ave Transit Center", "type": "BUS", "stop_seq": 550, "stop_id": 101, "stop_name": "SW Allen & Erickson", "jurisdic": "Beaverton", "zipcode": "97005", "frequent": "False" }, "geometry": { "type": "Point", "coordinates": [ -122.81232004853557, 45.476542205469293 ] } },
{ "type": "Feature", "properties": { "rte": 88, "dir": 0, "rte_desc": "88-Hart\/198th", "dir_desc": "To Willow Creek\/SW 185th Ave Transit Center", "type": "BUS", "stop_seq": 680, "stop_id": 8604, "stop_name": "SW Murray & Allen", "jurisdic": "Beaverton", "zipcode": "97008", "frequent": "False" }, "geometry": { "type": "Point", "coordinates": [ -122.8262724495161, 45.475671292281859 ] } },
{ "type": "Feature", "properties": { "rte": 88, "dir": 0, "rte_desc": "88-Hart\/198th", "dir_desc": "To Willow Creek\/SW 185th Ave Transit Center", "type": "BUS", "stop_seq": 700, "stop_id": 8605, "stop_name": "SW Murray & Davis", "jurisdic": "Beaverton", "zipcode": "97007", "frequent": "False" }, "geometry": { "type": "Point", "coordinates": [ -122.82627040887628, 45.473759283639374 ] } },
{ "type": "Feature", "properties": { "rte": 88, "dir": 0, "rte_desc": "88-Hart\/198th", "dir_desc": "To Willow Creek\/SW 185th Ave Transit Center", "type": "BUS", "stop_seq": 702, "stop_id": 9323, "stop_name": "SW Murray & Barlow", "jurisdic": "Beaverton", "zipcode": "97008", "frequent": "False" }, "geometry": { "type": "Point", "coordinates": [ -122.82629389105912, 45.469554665464891 ] } },
{ "type": "Feature", "properties": { "rte": 88, "dir": 0, "rte_desc": "88-Hart\/198th", "dir_desc": "To Willow Creek\/SW 185th Ave Transit Center", "type": "BUS", "stop_seq": 705, "stop_id": 10436, "stop_name": "SW Hart & 149th", "jurisdic": "Beaverton", "zipcode": "97007", "frequent": "False" }, "geometry": { "type": "Point", "coordinates": [ -122.83265353719619, 45.465721564587398 ] } },
{ "type": "Feature", "properties": { "rte": 88, "dir": 0, "rte_desc": "88-Hart\/198th", "dir_desc": "To Willow Creek\/SW 185th Ave Transit Center", "type": "BUS", "stop_seq": 850, "stop_id": 9669, "stop_name": "SW Bany & Tallac Way", "jurisdic": "Washington Co.", "zipcode": "97007", "frequent": "False" }, "geometry": { "type": "Point", "coordinates": [ -122.85088099827715, 45.467046820273048 ] } },
{ "type": "Feature", "properties": { "rte": 88, "dir": 0, "rte_desc": "88-Hart\/198th", "dir_desc": "To Willow Creek\/SW 185th Ave Transit Center", "type": "BUS", "stop_seq": 920, "stop_id": 10274, "stop_name": "SW 170th & Timberland Dr", "jurisdic": "Beaverton", "zipcode": "97007", "frequent": "False" }, "geometry": { "type": "Point", "coordinates": [ -122.85173032395458, 45.470947997981433 ] } },
{ "type": "Feature", "properties": { "rte": 88, "dir": 0, "rte_desc": "88-Hart\/198th", "dir_desc": "To Willow Creek\/SW 185th Ave Transit Center", "type": "BUS", "stop_seq": 1000, "stop_id": 9672, "stop_name": "SW 170th & Oak", "jurisdic": "Washington Co.", "zipcode": "97007", "frequent": "False" }, "geometry": { "type": "Point", "coordinates": [ -122.85171371058657, 45.476093509688241 ] } },
{ "type": "Feature", "properties": { "rte": 88, "dir": 0, "rte_desc": "88-Hart\/198th", "dir_desc": "To Willow Creek\/SW 185th Ave Transit Center", "type": "BUS", "stop_seq": 1150, "stop_id": 1657, "stop_name": "17500 Block SW Farmington", "jurisdic": "Washington Co.", "zipcode": "97078", "frequent": "False" }, "geometry": { "type": "Point", "coordinates": [ -122.85818014055771, 45.479567618659246 ] } },
{ "type": "Feature", "properties": { "rte": 88, "dir": 0, "rte_desc": "88-Hart\/198th", "dir_desc": "To Willow Creek\/SW 185th Ave Transit Center", "type": "BUS", "stop_seq": 1350, "stop_id": 1689, "stop_name": "SW Farmington & 188th Ct", "jurisdic": "Washington Co.", "zipcode": "97078", "frequent": "False" }, "geometry": { "type": "Point", "coordinates": [ -122.8705631814607, 45.473559707781 ] } },
{ "type": "Feature", "properties": { "rte": 88, "dir": 0, "rte_desc": "88-Hart\/198th", "dir_desc": "To Willow Creek\/SW 185th Ave Transit Center", "type": "BUS", "stop_seq": 1400, "stop_id": 1691, "stop_name": "SW Farmington & 192nd", "jurisdic": "Washington Co.", "zipcode": "97078", "frequent": "False" }, "geometry": { "type": "Point", "coordinates": [ -122.87439228032676, 45.471872579966842 ] } },
{ "type": "Feature", "properties": { "rte": 88, "dir": 0, "rte_desc": "88-Hart\/198th", "dir_desc": "To Willow Creek\/SW 185th Ave Transit Center", "type": "BUS", "stop_seq": 1650, "stop_id": 7077, "stop_name": "SW 198th & Prospect", "jurisdic": "Washington Co.", "zipcode": "97078", "frequent": "False" }, "geometry": { "type": "Point", "coordinates": [ -122.88166042853393, 45.474827241640114 ] } },
{ "type": "Feature", "properties": { "rte": 88, "dir": 0, "rte_desc": "88-Hart\/198th", "dir_desc": "To Willow Creek\/SW 185th Ave Transit Center", "type": "BUS", "stop_seq": 1700, "stop_id": 7092, "stop_name": "SW 198th & Oak", "jurisdic": "Washington Co.", "zipcode": "97078", "frequent": "False" }, "geometry": { "type": "Point", "coordinates": [ -122.88166890579853, 45.476490296027421 ] } },
{ "type": "Feature", "properties": { "rte": 88, "dir": 0, "rte_desc": "88-Hart\/198th", "dir_desc": "To Willow Creek\/SW 185th Ave Transit Center", "type": "BUS", "stop_seq": 1800, "stop_id": 7069, "stop_name": "SW 198th & Deline", "jurisdic": "Washington Co.", "zipcode": "97078", "frequent": "False" }, "geometry": { "type": "Point", "coordinates": [ -122.88154794374827, 45.480638228259288 ] } },
{ "type": "Feature", "properties": { "rte": 88, "dir": 0, "rte_desc": "88-Hart\/198th", "dir_desc": "To Willow Creek\/SW 185th Ave Transit Center", "type": "BUS", "stop_seq": 1850, "stop_id": 7067, "stop_name": "SW 198th & Celebrity", "jurisdic": "Washington Co.", "zipcode": "97078", "frequent": "False" }, "geometry": { "type": "Point", "coordinates": [ -122.88149007712649, 45.482102017229934 ] } },
{ "type": "Feature", "properties": { "rte": 88, "dir": 0, "rte_desc": "88-Hart\/198th", "dir_desc": "To Willow Creek\/SW 185th Ave Transit Center", "type": "BUS", "stop_seq": 2200, "stop_id": 7090, "stop_name": "SW 198th & Trelane", "jurisdic": "Washington Co.", "zipcode": "97003", "frequent": "False" }, "geometry": { "type": "Point", "coordinates": [ -122.880901042868, 45.498649932873285 ] } },
{ "type": "Feature", "properties": { "rte": 88, "dir": 0, "rte_desc": "88-Hart\/198th", "dir_desc": "To Willow Creek\/SW 185th Ave Transit Center", "type": "BUS", "stop_seq": 2300, "stop_id": 7084, "stop_name": "SW 198th & Sandra", "jurisdic": "Washington Co.", "zipcode": "97003", "frequent": "False" }, "geometry": { "type": "Point", "coordinates": [ -122.88077916387287, 45.502626088485691 ] } },
{ "type": "Feature", "properties": { "rte": 88, "dir": 0, "rte_desc": "88-Hart\/198th", "dir_desc": "To Willow Creek\/SW 185th Ave Transit Center", "type": "BUS", "stop_seq": 2350, "stop_id": 7094, "stop_name": "SW 198th & York", "jurisdic": "Washington Co.", "zipcode": "97003", "frequent": "False" }, "geometry": { "type": "Point", "coordinates": [ -122.8807144471448, 45.504823636583026 ] } },
{ "type": "Feature", "properties": { "rte": 88, "dir": 0, "rte_desc": "88-Hart\/198th", "dir_desc": "To Willow Creek\/SW 185th Ave Transit Center", "type": "BUS", "stop_seq": 2775, "stop_id": 10464, "stop_name": "W Baseline & SW 185th", "jurisdic": "Hillsboro", "zipcode": "97003", "frequent": "False" }, "geometry": { "type": "Point", "coordinates": [ -122.867811989169, 45.515528122977251 ] } },
{ "type": "Feature", "properties": { "rte": 88, "dir": 0, "rte_desc": "88-Hart\/198th", "dir_desc": "To Willow Creek\/SW 185th Ave Transit Center", "type": "BUS", "stop_seq": 2750, "stop_id": 269, "stop_name": "W Baseline Rd & SW Willow Creek Dr", "jurisdic": "Washington Co.", "zipcode": "97003", "frequent": "False" }, "geometry": { "type": "Point", "coordinates": [ -122.87105502809938, 45.516162598749148 ] } },
{ "type": "Feature", "properties": { "rte": 88, "dir": 0, "rte_desc": "88-Hart\/198th", "dir_desc": "To Willow Creek\/SW 185th Ave Transit Center", "type": "BUS", "stop_seq": 325, "stop_id": 3581, "stop_name": "SW Lombard & 12th", "jurisdic": "Beaverton", "zipcode": "97005", "frequent": "False" }, "geometry": { "type": "Point", "coordinates": [ -122.80040323073261, 45.478520625931203 ] } },
{ "type": "Feature", "properties": { "rte": 88, "dir": 0, "rte_desc": "88-Hart\/198th", "dir_desc": "To Willow Creek\/SW 185th Ave Transit Center", "type": "BUS", "stop_seq": 250, "stop_id": 3584, "stop_name": "SW Lombard & 5th", "jurisdic": "Beaverton", "zipcode": "97005", "frequent": "False" }, "geometry": { "type": "Point", "coordinates": [ -122.80039101974367, 45.483050840679226 ] } },
{ "type": "Feature", "properties": { "rte": 88, "dir": 0, "rte_desc": "88-Hart\/198th", "dir_desc": "To Willow Creek\/SW 185th Ave Transit Center", "type": "BUS", "stop_seq": 500, "stop_id": 108, "stop_name": "SW Allen & Taralynn", "jurisdic": "Beaverton", "zipcode": "97005", "frequent": "False" }, "geometry": { "type": "Point", "coordinates": [ -122.80923585634844, 45.47653121953573 ] } },
{ "type": "Feature", "properties": { "rte": 88, "dir": 0, "rte_desc": "88-Hart\/198th", "dir_desc": "To Willow Creek\/SW 185th Ave Transit Center", "type": "BUS", "stop_seq": 600, "stop_id": 105, "stop_name": "SW Allen & Menlo", "jurisdic": "Beaverton", "zipcode": "97005", "frequent": "False" }, "geometry": { "type": "Point", "coordinates": [ -122.81700537413593, 45.476579703962258 ] } },
{ "type": "Feature", "properties": { "rte": 88, "dir": 0, "rte_desc": "88-Hart\/198th", "dir_desc": "To Willow Creek\/SW 185th Ave Transit Center", "type": "BUS", "stop_seq": 701, "stop_id": 8606, "stop_name": "SW Murray & Kilchis", "jurisdic": "Beaverton", "zipcode": "97008", "frequent": "False" }, "geometry": { "type": "Point", "coordinates": [ -122.82633571679752, 45.471836614401063 ] } },
{ "type": "Feature", "properties": { "rte": 88, "dir": 0, "rte_desc": "88-Hart\/198th", "dir_desc": "To Willow Creek\/SW 185th Ave Transit Center", "type": "BUS", "stop_seq": 704, "stop_id": 9664, "stop_name": "SW Hart & Dunsmuir", "jurisdic": "Beaverton", "zipcode": "97007", "frequent": "False" }, "geometry": { "type": "Point", "coordinates": [ -122.83066971918396, 45.465721949310385 ] } },
{ "type": "Feature", "properties": { "rte": 88, "dir": 0, "rte_desc": "88-Hart\/198th", "dir_desc": "To Willow Creek\/SW 185th Ave Transit Center", "type": "BUS", "stop_seq": 750, "stop_id": 9667, "stop_name": "SW Hart & 160th", "jurisdic": "Beaverton", "zipcode": "97007", "frequent": "False" }, "geometry": { "type": "Point", "coordinates": [ -122.84077082493269, 45.465726388681155 ] } },
{ "type": "Feature", "properties": { "rte": 88, "dir": 0, "rte_desc": "88-Hart\/198th", "dir_desc": "To Willow Creek\/SW 185th Ave Transit Center", "type": "BUS", "stop_seq": 950, "stop_id": 9671, "stop_name": "SW 170th & Ivy Glenn", "jurisdic": "Beaverton", "zipcode": "97007", "frequent": "False" }, "geometry": { "type": "Point", "coordinates": [ -122.85172524449544, 45.472546212404666 ] } },
{ "type": "Feature", "properties": { "rte": 88, "dir": 0, "rte_desc": "88-Hart\/198th", "dir_desc": "To Willow Creek\/SW 185th Ave Transit Center", "type": "BUS", "stop_seq": 1100, "stop_id": 1651, "stop_name": "SW Farmington & Kinnaman", "jurisdic": "Washington Co.", "zipcode": "97078", "frequent": "False" }, "geometry": { "type": "Point", "coordinates": [ -122.85597195277703, 45.48059931780147 ] } },
{ "type": "Feature", "properties": { "rte": 88, "dir": 0, "rte_desc": "88-Hart\/198th", "dir_desc": "To Willow Creek\/SW 185th Ave Transit Center", "type": "BUS", "stop_seq": 1320, "stop_id": 9674, "stop_name": "SW Farmington & 185th", "jurisdic": "Washington Co.", "zipcode": "97078", "frequent": "False" }, "geometry": { "type": "Point", "coordinates": [ -122.86699537589129, 45.475647106221764 ] } },
{ "type": "Feature", "properties": { "rte": 88, "dir": 0, "rte_desc": "88-Hart\/198th", "dir_desc": "To Willow Creek\/SW 185th Ave Transit Center", "type": "BUS", "stop_seq": 1600, "stop_id": 7065, "stop_name": "SW 198th & Carlin", "jurisdic": "Washington Co.", "zipcode": "97078", "frequent": "False" }, "geometry": { "type": "Point", "coordinates": [ -122.8816502315299, 45.472081542539009 ] } },
{ "type": "Feature", "properties": { "rte": 88, "dir": 0, "rte_desc": "88-Hart\/198th", "dir_desc": "To Willow Creek\/SW 185th Ave Transit Center", "type": "BUS", "stop_seq": 1750, "stop_id": 7082, "stop_name": "SW 198th & Rosa", "jurisdic": "Washington Co.", "zipcode": "97078", "frequent": "False" }, "geometry": { "type": "Point", "coordinates": [ -122.88161723628495, 45.478887046481169 ] } },
{ "type": "Feature", "properties": { "rte": 88, "dir": 0, "rte_desc": "88-Hart\/198th", "dir_desc": "To Willow Creek\/SW 185th Ave Transit Center", "type": "BUS", "stop_seq": 1900, "stop_id": 7062, "stop_name": "SW 198th & Butternut", "jurisdic": "Washington Co.", "zipcode": "97078", "frequent": "False" }, "geometry": { "type": "Point", "coordinates": [ -122.88144154956447, 45.484118617239652 ] } },
{ "type": "Feature", "properties": { "rte": 88, "dir": 0, "rte_desc": "88-Hart\/198th", "dir_desc": "To Willow Creek\/SW 185th Ave Transit Center", "type": "BUS", "stop_seq": 2000, "stop_id": 7076, "stop_name": "SW 198th & Kinnaman", "jurisdic": "Washington Co.", "zipcode": "97078", "frequent": "False" }, "geometry": { "type": "Point", "coordinates": [ -122.88133213722301, 45.489366767035563 ] } },
{ "type": "Feature", "properties": { "rte": 88, "dir": 0, "rte_desc": "88-Hart\/198th", "dir_desc": "To Willow Creek\/SW 185th Ave Transit Center", "type": "BUS", "stop_seq": 2250, "stop_id": 7074, "stop_name": "SW 198th & Johnson", "jurisdic": "Washington Co.", "zipcode": "97003", "frequent": "False" }, "geometry": { "type": "Point", "coordinates": [ -122.88083528996881, 45.500266354344902 ] } },
{ "type": "Feature", "properties": { "rte": 88, "dir": 0, "rte_desc": "88-Hart\/198th", "dir_desc": "To Willow Creek\/SW 185th Ave Transit Center", "type": "BUS", "stop_seq": 2651, "stop_id": 7053, "stop_name": "SW 197th & W Baseline", "jurisdic": "Washington Co.", "zipcode": "97003", "frequent": "False" }, "geometry": { "type": "Point", "coordinates": [ -122.87944480163766, 45.515022338060263 ] } },
{ "type": "Feature", "properties": { "rte": 88, "dir": 0, "rte_desc": "88-Hart\/198th", "dir_desc": "To Willow Creek\/SW 185th Ave Transit Center", "type": "BUS", "stop_seq": 675, "stop_id": 114, "stop_name": "SW Allen & 141st", "jurisdic": "Beaverton", "zipcode": "97005", "frequent": "False" }, "geometry": { "type": "Point", "coordinates": [ -122.82137599387413, 45.476562191675143 ] } },
{ "type": "Feature", "properties": { "rte": 88, "dir": 0, "rte_desc": "88-Hart\/198th", "dir_desc": "To Willow Creek\/SW 185th Ave Transit Center", "type": "BUS", "stop_seq": 900, "stop_id": 9670, "stop_name": "SW 170th & Canby", "jurisdic": "Beaverton", "zipcode": "97007", "frequent": "False" }, "geometry": { "type": "Point", "coordinates": [ -122.85172253255828, 45.469040718383098 ] } },
{ "type": "Feature", "properties": { "rte": 88, "dir": 0, "rte_desc": "88-Hart\/198th", "dir_desc": "To Willow Creek\/SW 185th Ave Transit Center", "type": "BUS", "stop_seq": 1075, "stop_id": 1682, "stop_name": "SW Farmington & 170th", "jurisdic": "Washington Co.", "zipcode": "97078", "frequent": "False" }, "geometry": { "type": "Point", "coordinates": [ -122.85216904896321, 45.481778072876573 ] } },
{ "type": "Feature", "properties": { "rte": 88, "dir": 0, "rte_desc": "88-Hart\/198th", "dir_desc": "To Willow Creek\/SW 185th Ave Transit Center", "type": "BUS", "stop_seq": 715, "stop_id": 9665, "stop_name": "SW Hart & 155th", "jurisdic": "Beaverton", "zipcode": "97007", "frequent": "False" }, "geometry": { "type": "Point", "coordinates": [ -122.83677649818935, 45.465723102187326 ] } },
{ "type": "Feature", "properties": { "rte": 88, "dir": 0, "rte_desc": "88-Hart\/198th", "dir_desc": "To Willow Creek\/SW 185th Ave Transit Center", "type": "BUS", "stop_seq": 1050, "stop_id": 9673, "stop_name": "SW 170th & Rosa Place", "jurisdic": "Washington Co.", "zipcode": "97007", "frequent": "False" }, "geometry": { "type": "Point", "coordinates": [ -122.851456667112, 45.479306708864435 ] } },
{ "type": "Feature", "properties": { "rte": 88, "dir": 0, "rte_desc": "88-Hart\/198th", "dir_desc": "To Willow Creek\/SW 185th Ave Transit Center", "type": "BUS", "stop_seq": 1500, "stop_id": 7071, "stop_name": "SW 198th & Farmington", "jurisdic": "Washington Co.", "zipcode": "97078", "frequent": "False" }, "geometry": { "type": "Point", "coordinates": [ -122.8815740841045, 45.470799190540191 ] } },
{ "type": "Feature", "properties": { "rte": 88, "dir": 0, "rte_desc": "88-Hart\/198th", "dir_desc": "To Willow Creek\/SW 185th Ave Transit Center", "type": "BUS", "stop_seq": 1950, "stop_id": 7087, "stop_name": "SW 198th & Southview", "jurisdic": "Washington Co.", "zipcode": "97078", "frequent": "False" }, "geometry": { "type": "Point", "coordinates": [ -122.88139530964547, 45.486533327828596 ] } },
{ "type": "Feature", "properties": { "rte": 88, "dir": 0, "rte_desc": "88-Hart\/198th", "dir_desc": "To Willow Creek\/SW 185th Ave Transit Center", "type": "BUS", "stop_seq": 300, "stop_id": 3586, "stop_name": "SW Lombard & 9th", "jurisdic": "Beaverton", "zipcode": "97005", "frequent": "False" }, "geometry": { "type": "Point", "coordinates": [ -122.80039158458861, 45.480802683055195 ] } },
{ "type": "Feature", "properties": { "rte": 88, "dir": 0, "rte_desc": "88-Hart\/198th", "dir_desc": "To Willow Creek\/SW 185th Ave Transit Center", "type": "BUS", "stop_seq": 703, "stop_id": 9663, "stop_name": "SW Hart & Forest Dr", "jurisdic": "Beaverton", "zipcode": "97007", "frequent": "False" }, "geometry": { "type": "Point", "coordinates": [ -122.82705448470185, 45.465724540729404 ] } },
{ "type": "Feature", "properties": { "rte": 88, "dir": 0, "rte_desc": "88-Hart\/198th", "dir_desc": "To Willow Creek\/SW 185th Ave Transit Center", "type": "BUS", "stop_seq": 2050, "stop_id": 7060, "stop_name": "SW 198th & Blanton", "jurisdic": "Washington Co.", "zipcode": "97078", "frequent": "False" }, "geometry": { "type": "Point", "coordinates": [ -122.88120713794247, 45.492434402861193 ] } },
{ "type": "Feature", "properties": { "rte": 88, "dir": 0, "rte_desc": "88-Hart\/198th", "dir_desc": "To Willow Creek\/SW 185th Ave Transit Center", "type": "BUS", "stop_seq": 2700, "stop_id": 278, "stop_name": "W Baseline Rd & SW 194th", "jurisdic": "Washington Co.", "zipcode": "97003", "frequent": "False" }, "geometry": { "type": "Point", "coordinates": [ -122.87587671648879, 45.515973788522139 ] } },
{ "type": "Feature", "properties": { "rte": 88, "dir": 0, "rte_desc": "88-Hart\/198th", "dir_desc": "To Willow Creek\/SW 185th Ave Transit Center", "type": "BUS", "stop_seq": 150, "stop_id": 12945, "stop_name": "SW Lombard & Broadway", "jurisdic": "Beaverton", "zipcode": "97005", "frequent": "False" }, "geometry": { "type": "Point", "coordinates": [ -122.80126358745736, 45.488210952756091 ] } },
{ "type": "Feature", "properties": { "rte": 88, "dir": 0, "rte_desc": "88-Hart\/198th", "dir_desc": "To Willow Creek\/SW 185th Ave Transit Center", "type": "BUS", "stop_seq": 800, "stop_id": 9668, "stop_name": "SW Hart & 165th", "jurisdic": "Beaverton", "zipcode": "97007", "frequent": "False" }, "geometry": { "type": "Point", "coordinates": [ -122.8456486817401, 45.465729963249913 ] } },
{ "type": "Feature", "properties": { "rte": 88, "dir": 0, "rte_desc": "88-Hart\/198th", "dir_desc": "To Willow Creek\/SW 185th Ave Transit Center", "type": "BUS", "stop_seq": 1450, "stop_id": 1694, "stop_name": "SW Farmington & 196th", "jurisdic": "Washington Co.", "zipcode": "97078", "frequent": "False" }, "geometry": { "type": "Point", "coordinates": [ -122.87864445844365, 45.470914868614322 ] } },
{ "type": "Feature", "properties": { "rte": 88, "dir": 0, "rte_desc": "88-Hart\/198th", "dir_desc": "To Willow Creek\/SW 185th Ave Transit Center", "type": "BUS", "stop_seq": 2800, "stop_id": 9621, "stop_name": "Willow Creek Transit Center", "jurisdic": "Hillsboro", "zipcode": "97006", "frequent": "False" }, "geometry": { "type": "Point", "coordinates": [ -122.87030033899856, 45.517399767850605 ] } },
{ "type": "Feature", "properties": { "rte": 88, "dir": 0, "rte_desc": "88-Hart\/198th", "dir_desc": "To Willow Creek\/SW 185th Ave Transit Center", "type": "BUS", "stop_seq": 2600, "stop_id": 13036, "stop_name": "SW 197th & Alderwood Ct", "jurisdic": "Washington Co.", "zipcode": "97003", "frequent": "False" }, "geometry": { "type": "Point", "coordinates": [ -122.87941869825353, 45.512278401444313 ] } },
{ "type": "Feature", "properties": { "rte": 88, "dir": 0, "rte_desc": "88-Hart\/198th", "dir_desc": "To Willow Creek\/SW 185th Ave Transit Center", "type": "BUS", "stop_seq": 2425, "stop_id": 13498, "stop_name": "SW 198th & Rock Rd", "jurisdic": "Washington Co.", "zipcode": "97003", "frequent": "False" }, "geometry": { "type": "Point", "coordinates": [ -122.88058355364279, 45.507755670599849 ] } },
{ "type": "Feature", "properties": { "rte": 88, "dir": 0, "rte_desc": "88-Hart\/198th", "dir_desc": "To Willow Creek\/SW 185th Ave Transit Center", "type": "BUS", "stop_seq": 2150, "stop_id": 13499, "stop_name": "3300 Block SW 198th", "jurisdic": "Washington Co.", "zipcode": "97003", "frequent": "False" }, "geometry": { "type": "Point", "coordinates": [ -122.88101370673041, 45.496057308378404 ] } },
{ "type": "Feature", "properties": { "rte": 88, "dir": 0, "rte_desc": "88-Hart\/198th", "dir_desc": "To Willow Creek\/SW 185th Ave Transit Center", "type": "BUS", "stop_seq": 1250, "stop_id": 13579, "stop_name": "SW Farmington & Rosa Rd", "jurisdic": "Washington Co.", "zipcode": "97078", "frequent": "False" }, "geometry": { "type": "Point", "coordinates": [ -122.85989567275747, 45.478792224875129 ] } },
{ "type": "Feature", "properties": { "rte": 88, "dir": 0, "rte_desc": "88-Hart\/198th", "dir_desc": "To Willow Creek\/SW 185th Ave Transit Center", "type": "BUS", "stop_seq": 2500, "stop_id": 13706, "stop_name": "SW 197th & Limestone Ct", "jurisdic": "Washington Co.", "zipcode": "97003", "frequent": "False" }, "geometry": { "type": "Point", "coordinates": [ -122.87942391459887, 45.509516664199879 ] } },
{ "type": "Feature", "properties": { "rte": 88, "dir": 0, "rte_desc": "88-Hart\/198th", "dir_desc": "To Willow Creek\/SW 185th Ave Transit Center", "type": "BUS", "stop_seq": 650, "stop_id": 112, "stop_name": "SW Allen & Wilson", "jurisdic": "Beaverton", "zipcode": "97005", "frequent": "False" }, "geometry": { "type": "Point", "coordinates": [ -122.8196766719075, 45.476550005102403 ] } },
{ "type": "Feature", "properties": { "rte": 88, "dir": 1, "rte_desc": "88-Hart\/198th", "dir_desc": "To Beaverton Transit Center", "type": "BUS", "stop_seq": 100, "stop_id": 275, "stop_name": "W Baseline Rd & SW 185th", "jurisdic": "Hillsboro", "zipcode": "97006", "frequent": "False" }, "geometry": { "type": "Point", "coordinates": [ -122.86840219040704, 45.516022432059877 ] } },
{ "type": "Feature", "properties": { "rte": 88, "dir": 1, "rte_desc": "88-Hart\/198th", "dir_desc": "To Beaverton Transit Center", "type": "BUS", "stop_seq": 150, "stop_id": 265, "stop_name": "W Baseline Rd & SW Lisa", "jurisdic": "Washington Co.", "zipcode": "97006", "frequent": "False" }, "geometry": { "type": "Point", "coordinates": [ -122.87124642458609, 45.516387949022779 ] } },
{ "type": "Feature", "properties": { "rte": 88, "dir": 1, "rte_desc": "88-Hart\/198th", "dir_desc": "To Beaverton Transit Center", "type": "BUS", "stop_seq": 200, "stop_id": 279, "stop_name": "W Baseline Rd & SW 195th", "jurisdic": "Washington Co.", "zipcode": "97006", "frequent": "False" }, "geometry": { "type": "Point", "coordinates": [ -122.87676031870809, 45.516081162564703 ] } },
{ "type": "Feature", "properties": { "rte": 88, "dir": 1, "rte_desc": "88-Hart\/198th", "dir_desc": "To Beaverton Transit Center", "type": "BUS", "stop_seq": 250, "stop_id": 7052, "stop_name": "700 Block SW 197th", "jurisdic": "Washington Co.", "zipcode": "97003", "frequent": "False" }, "geometry": { "type": "Point", "coordinates": [ -122.87960519736528, 45.514399165224241 ] } },
{ "type": "Feature", "properties": { "rte": 88, "dir": 1, "rte_desc": "88-Hart\/198th", "dir_desc": "To Beaverton Transit Center", "type": "BUS", "stop_seq": 400, "stop_id": 7054, "stop_name": "SW 197th & Frances", "jurisdic": "Washington Co.", "zipcode": "97003", "frequent": "False" }, "geometry": { "type": "Point", "coordinates": [ -122.87960991224254, 45.508534981864599 ] } },
{ "type": "Feature", "properties": { "rte": 88, "dir": 1, "rte_desc": "88-Hart\/198th", "dir_desc": "To Beaverton Transit Center", "type": "BUS", "stop_seq": 450, "stop_id": 7079, "stop_name": "SW 198th & Rock Dr", "jurisdic": "Washington Co.", "zipcode": "97003", "frequent": "False" }, "geometry": { "type": "Point", "coordinates": [ -122.88077901044659, 45.50720709493546 ] } },
{ "type": "Feature", "properties": { "rte": 88, "dir": 1, "rte_desc": "88-Hart\/198th", "dir_desc": "To Beaverton Transit Center", "type": "BUS", "stop_seq": 500, "stop_id": 7093, "stop_name": "SW 198th & York", "jurisdic": "Washington Co.", "zipcode": "97003", "frequent": "False" }, "geometry": { "type": "Point", "coordinates": [ -122.88084434163513, 45.504539112540854 ] } },
{ "type": "Feature", "properties": { "rte": 88, "dir": 1, "rte_desc": "88-Hart\/198th", "dir_desc": "To Beaverton Transit Center", "type": "BUS", "stop_seq": 550, "stop_id": 7072, "stop_name": "SW 198th & Imperial", "jurisdic": "Washington Co.", "zipcode": "97003", "frequent": "False" }, "geometry": { "type": "Point", "coordinates": [ -122.88096547477541, 45.502416363108907 ] } },
{ "type": "Feature", "properties": { "rte": 88, "dir": 1, "rte_desc": "88-Hart\/198th", "dir_desc": "To Beaverton Transit Center", "type": "BUS", "stop_seq": 600, "stop_id": 7073, "stop_name": "SW 198th & Johnson", "jurisdic": "Washington Co.", "zipcode": "97003", "frequent": "False" }, "geometry": { "type": "Point", "coordinates": [ -122.88104514959271, 45.500229627648089 ] } },
{ "type": "Feature", "properties": { "rte": 88, "dir": 1, "rte_desc": "88-Hart\/198th", "dir_desc": "To Beaverton Transit Center", "type": "BUS", "stop_seq": 650, "stop_id": 7089, "stop_name": "SW 198th & Trelane", "jurisdic": "Washington Co.", "zipcode": "97003", "frequent": "False" }, "geometry": { "type": "Point", "coordinates": [ -122.88112928922648, 45.498198416264877 ] } },
{ "type": "Feature", "properties": { "rte": 88, "dir": 1, "rte_desc": "88-Hart\/198th", "dir_desc": "To Beaverton Transit Center", "type": "BUS", "stop_seq": 850, "stop_id": 7075, "stop_name": "SW 198th & Kinnaman", "jurisdic": "Washington Co.", "zipcode": "97078", "frequent": "False" }, "geometry": { "type": "Point", "coordinates": [ -122.8814813527061, 45.48924448018866 ] } },
{ "type": "Feature", "properties": { "rte": 88, "dir": 1, "rte_desc": "88-Hart\/198th", "dir_desc": "To Beaverton Transit Center", "type": "BUS", "stop_seq": 900, "stop_id": 7086, "stop_name": "SW 198th & Southview", "jurisdic": "Washington Co.", "zipcode": "97078", "frequent": "False" }, "geometry": { "type": "Point", "coordinates": [ -122.88161579078043, 45.486365426576626 ] } },
{ "type": "Feature", "properties": { "rte": 88, "dir": 1, "rte_desc": "88-Hart\/198th", "dir_desc": "To Beaverton Transit Center", "type": "BUS", "stop_seq": 950, "stop_id": 7063, "stop_name": "SW 198th & Butternut", "jurisdic": "Washington Co.", "zipcode": "97078", "frequent": "False" }, "geometry": { "type": "Point", "coordinates": [ -122.88161476106436, 45.484116964534245 ] } },
{ "type": "Feature", "properties": { "rte": 88, "dir": 1, "rte_desc": "88-Hart\/198th", "dir_desc": "To Beaverton Transit Center", "type": "BUS", "stop_seq": 1000, "stop_id": 7066, "stop_name": "SW 198th & Celebrity", "jurisdic": "Washington Co.", "zipcode": "97078", "frequent": "False" }, "geometry": { "type": "Point", "coordinates": [ -122.88167423754335, 45.482148358755282 ] } },
{ "type": "Feature", "properties": { "rte": 88, "dir": 1, "rte_desc": "88-Hart\/198th", "dir_desc": "To Beaverton Transit Center", "type": "BUS", "stop_seq": 1050, "stop_id": 7068, "stop_name": "SW 198th & Deline", "jurisdic": "Washington Co.", "zipcode": "97078", "frequent": "False" }, "geometry": { "type": "Point", "coordinates": [ -122.88173866569301, 45.480410804442883 ] } },
{ "type": "Feature", "properties": { "rte": 88, "dir": 1, "rte_desc": "88-Hart\/198th", "dir_desc": "To Beaverton Transit Center", "type": "BUS", "stop_seq": 1100, "stop_id": 7083, "stop_name": "SW 198th & Rosa", "jurisdic": "Washington Co.", "zipcode": "97078", "frequent": "False" }, "geometry": { "type": "Point", "coordinates": [ -122.88177295998355, 45.478781958152126 ] } },
{ "type": "Feature", "properties": { "rte": 88, "dir": 1, "rte_desc": "88-Hart\/198th", "dir_desc": "To Beaverton Transit Center", "type": "BUS", "stop_seq": 1200, "stop_id": 7078, "stop_name": "SW 198th & Prospect", "jurisdic": "Washington Co.", "zipcode": "97078", "frequent": "False" }, "geometry": { "type": "Point", "coordinates": [ -122.88181109657408, 45.474703105694395 ] } },
{ "type": "Feature", "properties": { "rte": 88, "dir": 1, "rte_desc": "88-Hart\/198th", "dir_desc": "To Beaverton Transit Center", "type": "BUS", "stop_seq": 1400, "stop_id": 1693, "stop_name": "SW Farmington & 195th", "jurisdic": "Washington Co.", "zipcode": "97007", "frequent": "False" }, "geometry": { "type": "Point", "coordinates": [ -122.8781928220246, 45.470831861924502 ] } },
{ "type": "Feature", "properties": { "rte": 88, "dir": 1, "rte_desc": "88-Hart\/198th", "dir_desc": "To Beaverton Transit Center", "type": "BUS", "stop_seq": 1450, "stop_id": 1692, "stop_name": "SW Farmington & 192nd", "jurisdic": "Washington Co.", "zipcode": "97007", "frequent": "False" }, "geometry": { "type": "Point", "coordinates": [ -122.8741103971106, 45.471804249606322 ] } },
{ "type": "Feature", "properties": { "rte": 88, "dir": 1, "rte_desc": "88-Hart\/198th", "dir_desc": "To Beaverton Transit Center", "type": "BUS", "stop_seq": 1520, "stop_id": 10166, "stop_name": "SW Farmington & 185th", "jurisdic": "Washington Co.", "zipcode": "97007", "frequent": "False" }, "geometry": { "type": "Point", "coordinates": [ -122.86699505522337, 45.475402529358647 ] } },
{ "type": "Feature", "properties": { "rte": 88, "dir": 1, "rte_desc": "88-Hart\/198th", "dir_desc": "To Beaverton Transit Center", "type": "BUS", "stop_seq": 1600, "stop_id": 1688, "stop_name": "SW Farmington & 179th", "jurisdic": "Washington Co.", "zipcode": "97007", "frequent": "False" }, "geometry": { "type": "Point", "coordinates": [ -122.86108648344211, 45.478086271944527 ] } },
{ "type": "Feature", "properties": { "rte": 88, "dir": 1, "rte_desc": "88-Hart\/198th", "dir_desc": "To Beaverton Transit Center", "type": "BUS", "stop_seq": 1750, "stop_id": 1652, "stop_name": "SW Farmington & Kinnaman", "jurisdic": "Washington Co.", "zipcode": "97007", "frequent": "False" }, "geometry": { "type": "Point", "coordinates": [ -122.85560282988119, 45.480544608861166 ] } },
{ "type": "Feature", "properties": { "rte": 88, "dir": 1, "rte_desc": "88-Hart\/198th", "dir_desc": "To Beaverton Transit Center", "type": "BUS", "stop_seq": 1800, "stop_id": 10443, "stop_name": "SW 170th & Division", "jurisdic": "Washington Co.", "zipcode": "97007", "frequent": "False" }, "geometry": { "type": "Point", "coordinates": [ -122.85165957385927, 45.481140756689356 ] } },
{ "type": "Feature", "properties": { "rte": 88, "dir": 1, "rte_desc": "88-Hart\/198th", "dir_desc": "To Beaverton Transit Center", "type": "BUS", "stop_seq": 1925, "stop_id": 9677, "stop_name": "SW 170th & Oak", "jurisdic": "Washington Co.", "zipcode": "97007", "frequent": "False" }, "geometry": { "type": "Point", "coordinates": [ -122.85192566663159, 45.475348756867831 ] } },
{ "type": "Feature", "properties": { "rte": 88, "dir": 1, "rte_desc": "88-Hart\/198th", "dir_desc": "To Beaverton Transit Center", "type": "BUS", "stop_seq": 1970, "stop_id": 10273, "stop_name": "SW 170th & Timberland Dr", "jurisdic": "Beaverton", "zipcode": "97007", "frequent": "False" }, "geometry": { "type": "Point", "coordinates": [ -122.85193902734476, 45.471355409202928 ] } },
{ "type": "Feature", "properties": { "rte": 88, "dir": 1, "rte_desc": "88-Hart\/198th", "dir_desc": "To Beaverton Transit Center", "type": "BUS", "stop_seq": 2100, "stop_id": 9680, "stop_name": "SW Hart & 165th", "jurisdic": "Beaverton", "zipcode": "97007", "frequent": "False" }, "geometry": { "type": "Point", "coordinates": [ -122.84567365409542, 45.465580661707392 ] } },
{ "type": "Feature", "properties": { "rte": 88, "dir": 1, "rte_desc": "88-Hart\/198th", "dir_desc": "To Beaverton Transit Center", "type": "BUS", "stop_seq": 2150, "stop_id": 9681, "stop_name": "SW Hart & 161st", "jurisdic": "Beaverton", "zipcode": "97007", "frequent": "False" }, "geometry": { "type": "Point", "coordinates": [ -122.84224749749022, 45.465594607691123 ] } },
{ "type": "Feature", "properties": { "rte": 88, "dir": 1, "rte_desc": "88-Hart\/198th", "dir_desc": "To Beaverton Transit Center", "type": "BUS", "stop_seq": 2230, "stop_id": 9683, "stop_name": "SW Hart & 155th", "jurisdic": "Beaverton", "zipcode": "97007", "frequent": "False" }, "geometry": { "type": "Point", "coordinates": [ -122.83588916314397, 45.465577219276696 ] } },
{ "type": "Feature", "properties": { "rte": 88, "dir": 1, "rte_desc": "88-Hart\/198th", "dir_desc": "To Beaverton Transit Center", "type": "BUS", "stop_seq": 2240, "stop_id": 10437, "stop_name": "SW Hart & 149th", "jurisdic": "Beaverton", "zipcode": "97007", "frequent": "False" }, "geometry": { "type": "Point", "coordinates": [ -122.83208824719179, 45.465578301857505 ] } },
{ "type": "Feature", "properties": { "rte": 88, "dir": 1, "rte_desc": "88-Hart\/198th", "dir_desc": "To Beaverton Transit Center", "type": "BUS", "stop_seq": 2241, "stop_id": 9684, "stop_name": "SW Hart & Dunsmuir", "jurisdic": "Beaverton", "zipcode": "97007", "frequent": "False" }, "geometry": { "type": "Point", "coordinates": [ -122.83013206022423, 45.465568349283807 ] } },
{ "type": "Feature", "properties": { "rte": 88, "dir": 1, "rte_desc": "88-Hart\/198th", "dir_desc": "To Beaverton Transit Center", "type": "BUS", "stop_seq": 2246, "stop_id": 8632, "stop_name": "SW Murray & Hart", "jurisdic": "Beaverton", "zipcode": "97008", "frequent": "False" }, "geometry": { "type": "Point", "coordinates": [ -122.82590987001849, 45.466014150434972 ] } },
{ "type": "Feature", "properties": { "rte": 88, "dir": 1, "rte_desc": "88-Hart\/198th", "dir_desc": "To Beaverton Transit Center", "type": "BUS", "stop_seq": 2247, "stop_id": 8633, "stop_name": "SW Murray & Barlow", "jurisdic": "Beaverton", "zipcode": "97008", "frequent": "False" }, "geometry": { "type": "Point", "coordinates": [ -122.82595701642808, 45.469337967834164 ] } },
{ "type": "Feature", "properties": { "rte": 88, "dir": 1, "rte_desc": "88-Hart\/198th", "dir_desc": "To Beaverton Transit Center", "type": "BUS", "stop_seq": 2250, "stop_id": 8635, "stop_name": "SW Murray & Allen", "jurisdic": "Beaverton", "zipcode": "97008", "frequent": "False" }, "geometry": { "type": "Point", "coordinates": [ -122.82587174616373, 45.475243138366487 ] } },
{ "type": "Feature", "properties": { "rte": 88, "dir": 1, "rte_desc": "88-Hart\/198th", "dir_desc": "To Beaverton Transit Center", "type": "BUS", "stop_seq": 2253, "stop_id": 113, "stop_name": "SW Allen & 141st", "jurisdic": "Beaverton", "zipcode": "97008", "frequent": "False" }, "geometry": { "type": "Point", "coordinates": [ -122.82133512308971, 45.476394544554275 ] } },
{ "type": "Feature", "properties": { "rte": 88, "dir": 1, "rte_desc": "88-Hart\/198th", "dir_desc": "To Beaverton Transit Center", "type": "BUS", "stop_seq": 2260, "stop_id": 100, "stop_name": "SW Allen & Erickson", "jurisdic": "Beaverton", "zipcode": "97008", "frequent": "False" }, "geometry": { "type": "Point", "coordinates": [ -122.81212024846761, 45.476405449516605 ] } },
{ "type": "Feature", "properties": { "rte": 88, "dir": 1, "rte_desc": "88-Hart\/198th", "dir_desc": "To Beaverton Transit Center", "type": "BUS", "stop_seq": 2262, "stop_id": 102, "stop_name": "SW Allen & Hall", "jurisdic": "Beaverton", "zipcode": "97008", "frequent": "False" }, "geometry": { "type": "Point", "coordinates": [ -122.8057392534447, 45.476379532225884 ] } },
{ "type": "Feature", "properties": { "rte": 88, "dir": 1, "rte_desc": "88-Hart\/198th", "dir_desc": "To Beaverton Transit Center", "type": "BUS", "stop_seq": 2500, "stop_id": 3455, "stop_name": "SW Lombard & Allen", "jurisdic": "Beaverton", "zipcode": "97005", "frequent": "False" }, "geometry": { "type": "Point", "coordinates": [ -122.80019682573146, 45.47699626466305 ] } },
{ "type": "Feature", "properties": { "rte": 88, "dir": 1, "rte_desc": "88-Hart\/198th", "dir_desc": "To Beaverton Transit Center", "type": "BUS", "stop_seq": 2650, "stop_id": 3583, "stop_name": "SW Lombard & 5th", "jurisdic": "Beaverton", "zipcode": "97005", "frequent": "False" }, "geometry": { "type": "Point", "coordinates": [ -122.80022013039421, 45.482800886832401 ] } },
{ "type": "Feature", "properties": { "rte": 88, "dir": 1, "rte_desc": "88-Hart\/198th", "dir_desc": "To Beaverton Transit Center", "type": "BUS", "stop_seq": 2680, "stop_id": 3582, "stop_name": "SW Lombard & 2nd", "jurisdic": "Beaverton", "zipcode": "97005", "frequent": "False" }, "geometry": { "type": "Point", "coordinates": [ -122.80024520558301, 45.484926120812638 ] } },
{ "type": "Feature", "properties": { "rte": 88, "dir": 1, "rte_desc": "88-Hart\/198th", "dir_desc": "To Beaverton Transit Center", "type": "BUS", "stop_seq": 1350, "stop_id": 7070, "stop_name": "SW 198th & Farmington", "jurisdic": "Washington Co.", "zipcode": "97078", "frequent": "False" }, "geometry": { "type": "Point", "coordinates": [ -122.88179916082184, 45.470821969679506 ] } },
{ "type": "Feature", "properties": { "rte": 88, "dir": 1, "rte_desc": "88-Hart\/198th", "dir_desc": "To Beaverton Transit Center", "type": "BUS", "stop_seq": 1500, "stop_id": 1690, "stop_name": "SW Farmington & 188th Ct", "jurisdic": "Washington Co.", "zipcode": "97007", "frequent": "False" }, "geometry": { "type": "Point", "coordinates": [ -122.87072259280976, 45.473285622220168 ] } },
{ "type": "Feature", "properties": { "rte": 88, "dir": 1, "rte_desc": "88-Hart\/198th", "dir_desc": "To Beaverton Transit Center", "type": "BUS", "stop_seq": 1550, "stop_id": 1642, "stop_name": "18200 Block SW Farmington", "jurisdic": "Washington Co.", "zipcode": "97007", "frequent": "False" }, "geometry": { "type": "Point", "coordinates": [ -122.86442937388261, 45.476585626387056 ] } },
{ "type": "Feature", "properties": { "rte": 88, "dir": 1, "rte_desc": "88-Hart\/198th", "dir_desc": "To Beaverton Transit Center", "type": "BUS", "stop_seq": 1700, "stop_id": 1658, "stop_name": "SW Farmington & Remington Dr", "jurisdic": "Washington Co.", "zipcode": "97007", "frequent": "False" }, "geometry": { "type": "Point", "coordinates": [ -122.85804056753121, 45.479390558789511 ] } },
{ "type": "Feature", "properties": { "rte": 88, "dir": 1, "rte_desc": "88-Hart\/198th", "dir_desc": "To Beaverton Transit Center", "type": "BUS", "stop_seq": 1850, "stop_id": 9676, "stop_name": "SW 170th & Rosa Place", "jurisdic": "Washington Co.", "zipcode": "97007", "frequent": "False" }, "geometry": { "type": "Point", "coordinates": [ -122.85169341911967, 45.478969807059535 ] } },
{ "type": "Feature", "properties": { "rte": 88, "dir": 1, "rte_desc": "88-Hart\/198th", "dir_desc": "To Beaverton Transit Center", "type": "BUS", "stop_seq": 1950, "stop_id": 9675, "stop_name": "SW 170th & Ivy Glenn", "jurisdic": "Beaverton", "zipcode": "97007", "frequent": "False" }, "geometry": { "type": "Point", "coordinates": [ -122.85193402079459, 45.473026500073473 ] } },
{ "type": "Feature", "properties": { "rte": 88, "dir": 1, "rte_desc": "88-Hart\/198th", "dir_desc": "To Beaverton Transit Center", "type": "BUS", "stop_seq": 2050, "stop_id": 9679, "stop_name": "SW Bany & Tallac Way", "jurisdic": "Washington Co.", "zipcode": "97007", "frequent": "False" }, "geometry": { "type": "Point", "coordinates": [ -122.85066889295862, 45.466859637045573 ] } },
{ "type": "Feature", "properties": { "rte": 88, "dir": 1, "rte_desc": "88-Hart\/198th", "dir_desc": "To Beaverton Transit Center", "type": "BUS", "stop_seq": 2200, "stop_id": 9682, "stop_name": "SW Hart & 157th", "jurisdic": "Beaverton", "zipcode": "97007", "frequent": "False" }, "geometry": { "type": "Point", "coordinates": [ -122.83912396365683, 45.465589550114274 ] } },
{ "type": "Feature", "properties": { "rte": 88, "dir": 1, "rte_desc": "88-Hart\/198th", "dir_desc": "To Beaverton Transit Center", "type": "BUS", "stop_seq": 2242, "stop_id": 10211, "stop_name": "SW Hart & Forest Drive", "jurisdic": "Beaverton", "zipcode": "97007", "frequent": "False" }, "geometry": { "type": "Point", "coordinates": [ -122.82793272003565, 45.465572673711009 ] } },
{ "type": "Feature", "properties": { "rte": 88, "dir": 1, "rte_desc": "88-Hart\/198th", "dir_desc": "To Beaverton Transit Center", "type": "BUS", "stop_seq": 2248, "stop_id": 8634, "stop_name": "SW Murray & 22nd", "jurisdic": "Beaverton", "zipcode": "97008", "frequent": "False" }, "geometry": { "type": "Point", "coordinates": [ -122.82596185548158, 45.472405842695046 ] } },
{ "type": "Feature", "properties": { "rte": 88, "dir": 1, "rte_desc": "88-Hart\/198th", "dir_desc": "To Beaverton Transit Center", "type": "BUS", "stop_seq": 2252, "stop_id": 106, "stop_name": "SW Allen & Murray", "jurisdic": "Beaverton", "zipcode": "97005", "frequent": "False" }, "geometry": { "type": "Point", "coordinates": [ -122.82475523473701, 45.476380949939895 ] } },
{ "type": "Feature", "properties": { "rte": 88, "dir": 1, "rte_desc": "88-Hart\/198th", "dir_desc": "To Beaverton Transit Center", "type": "BUS", "stop_seq": 2258, "stop_id": 104, "stop_name": "SW Allen & Menlo", "jurisdic": "Beaverton", "zipcode": "97005", "frequent": "False" }, "geometry": { "type": "Point", "coordinates": [ -122.81734358850451, 45.476378950941459 ] } },
{ "type": "Feature", "properties": { "rte": 88, "dir": 1, "rte_desc": "88-Hart\/198th", "dir_desc": "To Beaverton Transit Center", "type": "BUS", "stop_seq": 2261, "stop_id": 99, "stop_name": "SW Allen & Dale", "jurisdic": "Beaverton", "zipcode": "97005", "frequent": "False" }, "geometry": { "type": "Point", "coordinates": [ -122.80946301127726, 45.476406189580572 ] } },
{ "type": "Feature", "properties": { "rte": 88, "dir": 1, "rte_desc": "88-Hart\/198th", "dir_desc": "To Beaverton Transit Center", "type": "BUS", "stop_seq": 2600, "stop_id": 3585, "stop_name": "SW Lombard & 9th", "jurisdic": "Beaverton", "zipcode": "97005", "frequent": "False" }, "geometry": { "type": "Point", "coordinates": [ -122.80021656602979, 45.480428367846734 ] } },
{ "type": "Feature", "properties": { "rte": 88, "dir": 1, "rte_desc": "88-Hart\/198th", "dir_desc": "To Beaverton Transit Center", "type": "BUS", "stop_seq": 800, "stop_id": 7061, "stop_name": "SW 198th & Blanton", "jurisdic": "Washington Co.", "zipcode": "97078", "frequent": "False" }, "geometry": { "type": "Point", "coordinates": [ -122.88143211137516, 45.492592469054003 ] } },
{ "type": "Feature", "properties": { "rte": 88, "dir": 1, "rte_desc": "88-Hart\/198th", "dir_desc": "To Beaverton Transit Center", "type": "BUS", "stop_seq": 1300, "stop_id": 7064, "stop_name": "SW 198th & Carlin", "jurisdic": "Washington Co.", "zipcode": "97078", "frequent": "False" }, "geometry": { "type": "Point", "coordinates": [ -122.88181360209855, 45.471732327752669 ] } },
{ "type": "Feature", "properties": { "rte": 88, "dir": 1, "rte_desc": "88-Hart\/198th", "dir_desc": "To Beaverton Transit Center", "type": "BUS", "stop_seq": 2000, "stop_id": 9678, "stop_name": "SW 170th & Cynthia", "jurisdic": "Washington Co.", "zipcode": "97007", "frequent": "False" }, "geometry": { "type": "Point", "coordinates": [ -122.85192167641897, 45.468684870380635 ] } },
{ "type": "Feature", "properties": { "rte": 88, "dir": 1, "rte_desc": "88-Hart\/198th", "dir_desc": "To Beaverton Transit Center", "type": "BUS", "stop_seq": 2700, "stop_id": 12944, "stop_name": "SW Lombard & Broadway", "jurisdic": "Beaverton", "zipcode": "97005", "frequent": "False" }, "geometry": { "type": "Point", "coordinates": [ -122.80072479146625, 45.487818285470041 ] } },
{ "type": "Feature", "properties": { "rte": 88, "dir": 1, "rte_desc": "88-Hart\/198th", "dir_desc": "To Beaverton Transit Center", "type": "BUS", "stop_seq": 2550, "stop_id": 3580, "stop_name": "SW Lombard & 12th", "jurisdic": "Beaverton", "zipcode": "97005", "frequent": "False" }, "geometry": { "type": "Point", "coordinates": [ -122.80024919400519, 45.478470915306701 ] } },
{ "type": "Feature", "properties": { "rte": 88, "dir": 1, "rte_desc": "88-Hart\/198th", "dir_desc": "To Beaverton Transit Center", "type": "BUS", "stop_seq": 2800, "stop_id": 9983, "stop_name": "Beaverton Transit Center", "jurisdic": "Beaverton", "zipcode": "97005", "frequent": "False" }, "geometry": { "type": "Point", "coordinates": [ -122.80143502339661, 45.491246671419788 ] } },
{ "type": "Feature", "properties": { "rte": 88, "dir": 1, "rte_desc": "88-Hart\/198th", "dir_desc": "To Beaverton Transit Center", "type": "BUS", "stop_seq": 300, "stop_id": 13035, "stop_name": "SW 197th & Brookfield", "jurisdic": "Washington Co.", "zipcode": "97003", "frequent": "False" }, "geometry": { "type": "Point", "coordinates": [ -122.87963238332998, 45.513394917937518 ] } },
{ "type": "Feature", "properties": { "rte": 88, "dir": 1, "rte_desc": "88-Hart\/198th", "dir_desc": "To Beaverton Transit Center", "type": "BUS", "stop_seq": 1150, "stop_id": 13517, "stop_name": "SW 198th & Oak Ct", "jurisdic": "Washington Co.", "zipcode": "97078", "frequent": "False" }, "geometry": { "type": "Point", "coordinates": [ -122.88181767577568, 45.475880468213539 ] } },
{ "type": "Feature", "properties": { "rte": 88, "dir": 1, "rte_desc": "88-Hart\/198th", "dir_desc": "To Beaverton Transit Center", "type": "BUS", "stop_seq": 725, "stop_id": 13705, "stop_name": "3300 Block SW 198th", "jurisdic": "Washington Co.", "zipcode": "97003", "frequent": "False" }, "geometry": { "type": "Point", "coordinates": [ -122.88123265156403, 45.496055188797058 ] } },
{ "type": "Feature", "properties": { "rte": 88, "dir": 1, "rte_desc": "88-Hart\/198th", "dir_desc": "To Beaverton Transit Center", "type": "BUS", "stop_seq": 50, "stop_id": 9621, "stop_name": "Willow Creek Transit Center", "jurisdic": "Hillsboro", "zipcode": "97006", "frequent": "False" }, "geometry": { "type": "Point", "coordinates": [ -122.87030033899856, 45.517399767850605 ] } },
{ "type": "Feature", "properties": { "rte": 88, "dir": 1, "rte_desc": "88-Hart\/198th", "dir_desc": "To Beaverton Transit Center", "type": "BUS", "stop_seq": 2255, "stop_id": 111, "stop_name": "SW Allen & Wilson", "jurisdic": "Beaverton", "zipcode": "97008", "frequent": "False" }, "geometry": { "type": "Point", "coordinates": [ -122.81924483126387, 45.476407035232334 ] } }
]
}
