{
"type": "FeatureCollection",
"crs": { "type": "name", "properties": { "name": "urn:ogc:def:crs:OGC:1.3:CRS84" } },
"features": [
{ "type": "Feature", "properties": { "rte": 35, "dir": 0, "rte_desc": "35-Macadam\/Greeley", "dir_desc": "To Oregon City Transit Center", "type": "BUS", "stop_seq": 150, "stop_id": 4502, "stop_name": "N Portsmouth & Yale", "jurisdic": "Portland", "zipcode": "97203", "frequent": "False" }, "geometry": { "type": "Point", "coordinates": [ -122.72775754181681, 45.577365614383027 ] } },
{ "type": "Feature", "properties": { "rte": 35, "dir": 0, "rte_desc": "35-Macadam\/Greeley", "dir_desc": "To Oregon City Transit Center", "type": "BUS", "stop_seq": 200, "stop_id": 4497, "stop_name": "N Portsmouth & Princeton", "jurisdic": "Portland", "zipcode": "97203", "frequent": "False" }, "geometry": { "type": "Point", "coordinates": [ -122.72669720872292, 45.578786671385124 ] } },
{ "type": "Feature", "properties": { "rte": 35, "dir": 0, "rte_desc": "35-Macadam\/Greeley", "dir_desc": "To Oregon City Transit Center", "type": "BUS", "stop_seq": 250, "stop_id": 4492, "stop_name": "N Portsmouth & Depauw", "jurisdic": "Portland", "zipcode": "97203", "frequent": "False" }, "geometry": { "type": "Point", "coordinates": [ -122.72550872738415, 45.580331465648705 ] } },
{ "type": "Feature", "properties": { "rte": 35, "dir": 0, "rte_desc": "35-Macadam\/Greeley", "dir_desc": "To Oregon City Transit Center", "type": "BUS", "stop_seq": 300, "stop_id": 4495, "stop_name": "N Portsmouth & Lombard St", "jurisdic": "Portland", "zipcode": "97203", "frequent": "False" }, "geometry": { "type": "Point", "coordinates": [ -122.72403231971731, 45.582341096457256 ] } },
{ "type": "Feature", "properties": { "rte": 35, "dir": 0, "rte_desc": "35-Macadam\/Greeley", "dir_desc": "To Oregon City Transit Center", "type": "BUS", "stop_seq": 350, "stop_id": 4501, "stop_name": "N Portsmouth & Willis", "jurisdic": "Portland", "zipcode": "97203", "frequent": "False" }, "geometry": { "type": "Point", "coordinates": [ -122.72255167323998, 45.584330778479405 ] } },
{ "type": "Feature", "properties": { "rte": 35, "dir": 0, "rte_desc": "35-Macadam\/Greeley", "dir_desc": "To Oregon City Transit Center", "type": "BUS", "stop_seq": 400, "stop_id": 6380, "stop_name": "N Willis & Hodge", "jurisdic": "Portland", "zipcode": "97203", "frequent": "False" }, "geometry": { "type": "Point", "coordinates": [ -122.72000381799471, 45.584006326390849 ] } },
{ "type": "Feature", "properties": { "rte": 35, "dir": 0, "rte_desc": "35-Macadam\/Greeley", "dir_desc": "To Oregon City Transit Center", "type": "BUS", "stop_seq": 450, "stop_id": 6376, "stop_name": "N Willis & Druid", "jurisdic": "Portland", "zipcode": "97203", "frequent": "False" }, "geometry": { "type": "Point", "coordinates": [ -122.71753883291066, 45.584030318668418 ] } },
{ "type": "Feature", "properties": { "rte": 35, "dir": 0, "rte_desc": "35-Macadam\/Greeley", "dir_desc": "To Oregon City Transit Center", "type": "BUS", "stop_seq": 500, "stop_id": 6381, "stop_name": "N Willis & Newman", "jurisdic": "Portland", "zipcode": "97203", "frequent": "False" }, "geometry": { "type": "Point", "coordinates": [ -122.71551086318405, 45.584050111708933 ] } },
{ "type": "Feature", "properties": { "rte": 35, "dir": 0, "rte_desc": "35-Macadam\/Greeley", "dir_desc": "To Oregon City Transit Center", "type": "BUS", "stop_seq": 550, "stop_id": 6392, "stop_name": "N Willis & Woolsey", "jurisdic": "Portland", "zipcode": "97203", "frequent": "False" }, "geometry": { "type": "Point", "coordinates": [ -122.71358323247554, 45.583966421188315 ] } },
{ "type": "Feature", "properties": { "rte": 35, "dir": 0, "rte_desc": "35-Macadam\/Greeley", "dir_desc": "To Oregon City Transit Center", "type": "BUS", "stop_seq": 600, "stop_id": 6390, "stop_name": "N Willis & Wayland", "jurisdic": "Portland", "zipcode": "97203", "frequent": "False" }, "geometry": { "type": "Point", "coordinates": [ -122.71145830263804, 45.583972443315751 ] } },
{ "type": "Feature", "properties": { "rte": 35, "dir": 0, "rte_desc": "35-Macadam\/Greeley", "dir_desc": "To Oregon City Transit Center", "type": "BUS", "stop_seq": 650, "stop_id": 6374, "stop_name": "N Willis & Chautauqua", "jurisdic": "Portland", "zipcode": "97217", "frequent": "False" }, "geometry": { "type": "Point", "coordinates": [ -122.70807074204195, 45.583957194104187 ] } },
{ "type": "Feature", "properties": { "rte": 35, "dir": 0, "rte_desc": "35-Macadam\/Greeley", "dir_desc": "To Oregon City Transit Center", "type": "BUS", "stop_seq": 700, "stop_id": 6388, "stop_name": "N Willis & Washburne", "jurisdic": "Portland", "zipcode": "97217", "frequent": "False" }, "geometry": { "type": "Point", "coordinates": [ -122.70546593622655, 45.583943675217263 ] } },
{ "type": "Feature", "properties": { "rte": 35, "dir": 0, "rte_desc": "35-Macadam\/Greeley", "dir_desc": "To Oregon City Transit Center", "type": "BUS", "stop_seq": 750, "stop_id": 6386, "stop_name": "N Willis & Wabash", "jurisdic": "Portland", "zipcode": "97217", "frequent": "False" }, "geometry": { "type": "Point", "coordinates": [ -122.70279471687257, 45.583955299433036 ] } },
{ "type": "Feature", "properties": { "rte": 35, "dir": 0, "rte_desc": "35-Macadam\/Greeley", "dir_desc": "To Oregon City Transit Center", "type": "BUS", "stop_seq": 800, "stop_id": 6377, "stop_name": "N Willis & Emerald", "jurisdic": "Portland", "zipcode": "97217", "frequent": "False" }, "geometry": { "type": "Point", "coordinates": [ -122.70005826561216, 45.583932238605023 ] } },
{ "type": "Feature", "properties": { "rte": 35, "dir": 0, "rte_desc": "35-Macadam\/Greeley", "dir_desc": "To Oregon City Transit Center", "type": "BUS", "stop_seq": 850, "stop_id": 6383, "stop_name": "N Willis & Peninsular", "jurisdic": "Portland", "zipcode": "97217", "frequent": "False" }, "geometry": { "type": "Point", "coordinates": [ -122.69735704586704, 45.583929272812036 ] } },
{ "type": "Feature", "properties": { "rte": 35, "dir": 0, "rte_desc": "35-Macadam\/Greeley", "dir_desc": "To Oregon City Transit Center", "type": "BUS", "stop_seq": 900, "stop_id": 4435, "stop_name": "N Peninsular & Halleck", "jurisdic": "Portland", "zipcode": "97217", "frequent": "False" }, "geometry": { "type": "Point", "coordinates": [ -122.69729686876354, 45.582853425242646 ] } },
{ "type": "Feature", "properties": { "rte": 35, "dir": 0, "rte_desc": "35-Macadam\/Greeley", "dir_desc": "To Oregon City Transit Center", "type": "BUS", "stop_seq": 950, "stop_id": 4439, "stop_name": "N Peninsular & Watts", "jurisdic": "Portland", "zipcode": "97217", "frequent": "False" }, "geometry": { "type": "Point", "coordinates": [ -122.69729666337858, 45.581373740921208 ] } },
{ "type": "Feature", "properties": { "rte": 35, "dir": 0, "rte_desc": "35-Macadam\/Greeley", "dir_desc": "To Oregon City Transit Center", "type": "BUS", "stop_seq": 1000, "stop_id": 4433, "stop_name": "N Peninsular & Farragut", "jurisdic": "Portland", "zipcode": "97217", "frequent": "False" }, "geometry": { "type": "Point", "coordinates": [ -122.69731926608058, 45.579232041655899 ] } },
{ "type": "Feature", "properties": { "rte": 35, "dir": 0, "rte_desc": "35-Macadam\/Greeley", "dir_desc": "To Oregon City Transit Center", "type": "BUS", "stop_seq": 1050, "stop_id": 4437, "stop_name": "N Peninsular & Russet", "jurisdic": "Portland", "zipcode": "97217", "frequent": "False" }, "geometry": { "type": "Point", "coordinates": [ -122.69733294801273, 45.577840828718585 ] } },
{ "type": "Feature", "properties": { "rte": 35, "dir": 0, "rte_desc": "35-Macadam\/Greeley", "dir_desc": "To Oregon City Transit Center", "type": "BUS", "stop_seq": 1100, "stop_id": 2213, "stop_name": "N Greeley & Lombard St", "jurisdic": "Portland", "zipcode": "97217", "frequent": "False" }, "geometry": { "type": "Point", "coordinates": [ -122.69559492543873, 45.57673428417435 ] } },
{ "type": "Feature", "properties": { "rte": 35, "dir": 0, "rte_desc": "35-Macadam\/Greeley", "dir_desc": "To Oregon City Transit Center", "type": "BUS", "stop_seq": 1200, "stop_id": 2186, "stop_name": "N Greeley & Bryant", "jurisdic": "Portland", "zipcode": "97217", "frequent": "False" }, "geometry": { "type": "Point", "coordinates": [ -122.69557272219639, 45.573661334946074 ] } },
{ "type": "Feature", "properties": { "rte": 35, "dir": 0, "rte_desc": "35-Macadam\/Greeley", "dir_desc": "To Oregon City Transit Center", "type": "BUS", "stop_seq": 1250, "stop_id": 2191, "stop_name": "N Greeley & Dekum", "jurisdic": "Portland", "zipcode": "97217", "frequent": "False" }, "geometry": { "type": "Point", "coordinates": [ -122.6956207184037, 45.571853691056923 ] } },
{ "type": "Feature", "properties": { "rte": 35, "dir": 0, "rte_desc": "35-Macadam\/Greeley", "dir_desc": "To Oregon City Transit Center", "type": "BUS", "stop_seq": 1300, "stop_id": 2222, "stop_name": "N Greeley & Rosa Parks Way", "jurisdic": "Portland", "zipcode": "97217", "frequent": "False" }, "geometry": { "type": "Point", "coordinates": [ -122.69566646384595, 45.570085594728155 ] } },
{ "type": "Feature", "properties": { "rte": 35, "dir": 0, "rte_desc": "35-Macadam\/Greeley", "dir_desc": "To Oregon City Transit Center", "type": "BUS", "stop_seq": 1350, "stop_id": 2198, "stop_name": "N Greeley & Holman", "jurisdic": "Portland", "zipcode": "97217", "frequent": "False" }, "geometry": { "type": "Point", "coordinates": [ -122.69565153535804, 45.568282557197108 ] } },
{ "type": "Feature", "properties": { "rte": 35, "dir": 0, "rte_desc": "35-Macadam\/Greeley", "dir_desc": "To Oregon City Transit Center", "type": "BUS", "stop_seq": 1450, "stop_id": 2205, "stop_name": "N Greeley & Jessup", "jurisdic": "Portland", "zipcode": "97217", "frequent": "False" }, "geometry": { "type": "Point", "coordinates": [ -122.69568894787979, 45.564664996182245 ] } },
{ "type": "Feature", "properties": { "rte": 35, "dir": 0, "rte_desc": "35-Macadam\/Greeley", "dir_desc": "To Oregon City Transit Center", "type": "BUS", "stop_seq": 1850, "stop_id": 11845, "stop_name": "N Interstate & Larrabee", "jurisdic": "Portland", "zipcode": "97227", "frequent": "False" }, "geometry": { "type": "Point", "coordinates": [ -122.6712981720121, 45.532205362280799 ] } },
{ "type": "Feature", "properties": { "rte": 35, "dir": 0, "rte_desc": "35-Macadam\/Greeley", "dir_desc": "To Oregon City Transit Center", "type": "BUS", "stop_seq": 1900, "stop_id": 11813, "stop_name": "N Interstate & Multnomah (Rose Quarter)", "jurisdic": "Portland", "zipcode": "97232", "frequent": "False" }, "geometry": { "type": "Point", "coordinates": [ -122.66765758395256, 45.529874917218159 ] } },
{ "type": "Feature", "properties": { "rte": 35, "dir": 0, "rte_desc": "35-Macadam\/Greeley", "dir_desc": "To Oregon City Transit Center", "type": "BUS", "stop_seq": 2550, "stop_id": 9311, "stop_name": "NW Glisan & 3rd", "jurisdic": "Portland", "zipcode": "97209", "frequent": "False" }, "geometry": { "type": "Point", "coordinates": [ -122.67410562996956, 45.526816832029695 ] } },
{ "type": "Feature", "properties": { "rte": 35, "dir": 0, "rte_desc": "35-Macadam\/Greeley", "dir_desc": "To Oregon City Transit Center", "type": "BUS", "stop_seq": 2600, "stop_id": 9301, "stop_name": "NW 5th & Davis", "jurisdic": "Portland", "zipcode": "97209", "frequent": "False" }, "geometry": { "type": "Point", "coordinates": [ -122.6755520254211, 45.524704992815863 ] } },
{ "type": "Feature", "properties": { "rte": 35, "dir": 0, "rte_desc": "35-Macadam\/Greeley", "dir_desc": "To Oregon City Transit Center", "type": "BUS", "stop_seq": 2650, "stop_id": 7631, "stop_name": "SW 5th & Pine", "jurisdic": "Portland", "zipcode": "97204", "frequent": "False" }, "geometry": { "type": "Point", "coordinates": [ -122.6758265758323, 45.522240179891263 ] } },
{ "type": "Feature", "properties": { "rte": 35, "dir": 0, "rte_desc": "35-Macadam\/Greeley", "dir_desc": "To Oregon City Transit Center", "type": "BUS", "stop_seq": 2700, "stop_id": 7586, "stop_name": "SW 5th & Alder", "jurisdic": "Portland", "zipcode": "97204", "frequent": "False" }, "geometry": { "type": "Point", "coordinates": [ -122.6772070403278, 45.519601923194415 ] } },
{ "type": "Feature", "properties": { "rte": 35, "dir": 0, "rte_desc": "35-Macadam\/Greeley", "dir_desc": "To Oregon City Transit Center", "type": "BUS", "stop_seq": 2750, "stop_id": 7614, "stop_name": "SW 5th & Main", "jurisdic": "Portland", "zipcode": "97204", "frequent": "False" }, "geometry": { "type": "Point", "coordinates": [ -122.6790159382719, 45.516269401532988 ] } },
{ "type": "Feature", "properties": { "rte": 35, "dir": 0, "rte_desc": "35-Macadam\/Greeley", "dir_desc": "To Oregon City Transit Center", "type": "BUS", "stop_seq": 2800, "stop_id": 13167, "stop_name": "SW 5th & Clay", "jurisdic": "Portland", "zipcode": "97201", "frequent": "False" }, "geometry": { "type": "Point", "coordinates": [ -122.68049937692004, 45.513597185325658 ] } },
{ "type": "Feature", "properties": { "rte": 35, "dir": 0, "rte_desc": "35-Macadam\/Greeley", "dir_desc": "To Oregon City Transit Center", "type": "BUS", "stop_seq": 2850, "stop_id": 2580, "stop_name": "SW Harrison & 4th", "jurisdic": "Portland", "zipcode": "97201", "frequent": "False" }, "geometry": { "type": "Point", "coordinates": [ -122.68109478942257, 45.510523655329635 ] } },
{ "type": "Feature", "properties": { "rte": 35, "dir": 0, "rte_desc": "35-Macadam\/Greeley", "dir_desc": "To Oregon City Transit Center", "type": "BUS", "stop_seq": 2900, "stop_id": 2566, "stop_name": "200 Block SW Harrison", "jurisdic": "Portland", "zipcode": "97201", "frequent": "False" }, "geometry": { "type": "Point", "coordinates": [ -122.67903167489769, 45.509981575504639 ] } },
{ "type": "Feature", "properties": { "rte": 35, "dir": 0, "rte_desc": "35-Macadam\/Greeley", "dir_desc": "To Oregon City Transit Center", "type": "BUS", "stop_seq": 3200, "stop_id": 3612, "stop_name": "SW Macadam & Hamilton Ct", "jurisdic": "Portland", "zipcode": "97239", "frequent": "False" }, "geometry": { "type": "Point", "coordinates": [ -122.67382962798398, 45.489959475385923 ] } },
{ "type": "Feature", "properties": { "rte": 35, "dir": 0, "rte_desc": "35-Macadam\/Greeley", "dir_desc": "To Oregon City Transit Center", "type": "BUS", "stop_seq": 3250, "stop_id": 3615, "stop_name": "SW Macadam & Julia", "jurisdic": "Portland", "zipcode": "97239", "frequent": "False" }, "geometry": { "type": "Point", "coordinates": [ -122.67552110905447, 45.487658809001154 ] } },
{ "type": "Feature", "properties": { "rte": 35, "dir": 0, "rte_desc": "35-Macadam\/Greeley", "dir_desc": "To Oregon City Transit Center", "type": "BUS", "stop_seq": 3300, "stop_id": 3604, "stop_name": "SW Macadam & Boundary", "jurisdic": "Portland", "zipcode": "97239", "frequent": "False" }, "geometry": { "type": "Point", "coordinates": [ -122.67533424890527, 45.485128644848523 ] } },
{ "type": "Feature", "properties": { "rte": 35, "dir": 0, "rte_desc": "35-Macadam\/Greeley", "dir_desc": "To Oregon City Transit Center", "type": "BUS", "stop_seq": 3350, "stop_id": 3609, "stop_name": "SW Macadam & Flower", "jurisdic": "Portland", "zipcode": "97239", "frequent": "False" }, "geometry": { "type": "Point", "coordinates": [ -122.67401643763252, 45.482582345164012 ] } },
{ "type": "Feature", "properties": { "rte": 35, "dir": 0, "rte_desc": "35-Macadam\/Greeley", "dir_desc": "To Oregon City Transit Center", "type": "BUS", "stop_seq": 3400, "stop_id": 3624, "stop_name": "SW Macadam & Pendleton", "jurisdic": "Portland", "zipcode": "97239", "frequent": "False" }, "geometry": { "type": "Point", "coordinates": [ -122.67357111252683, 45.481260723980419 ] } },
{ "type": "Feature", "properties": { "rte": 35, "dir": 0, "rte_desc": "35-Macadam\/Greeley", "dir_desc": "To Oregon City Transit Center", "type": "BUS", "stop_seq": 3450, "stop_id": 3606, "stop_name": "SW Macadam & Carolina", "jurisdic": "Portland", "zipcode": "97239", "frequent": "False" }, "geometry": { "type": "Point", "coordinates": [ -122.67272725027107, 45.478771427271163 ] } },
{ "type": "Feature", "properties": { "rte": 35, "dir": 0, "rte_desc": "35-Macadam\/Greeley", "dir_desc": "To Oregon City Transit Center", "type": "BUS", "stop_seq": 3500, "stop_id": 3614, "stop_name": "SW Macadam & Nebraska", "jurisdic": "Portland", "zipcode": "97239", "frequent": "False" }, "geometry": { "type": "Point", "coordinates": [ -122.67226383732768, 45.477346558386721 ] } },
{ "type": "Feature", "properties": { "rte": 35, "dir": 0, "rte_desc": "35-Macadam\/Greeley", "dir_desc": "To Oregon City Transit Center", "type": "BUS", "stop_seq": 3550, "stop_id": 3605, "stop_name": "SW Macadam & California", "jurisdic": "Portland", "zipcode": "97219", "frequent": "False" }, "geometry": { "type": "Point", "coordinates": [ -122.67178426921676, 45.474450488028118 ] } },
{ "type": "Feature", "properties": { "rte": 35, "dir": 0, "rte_desc": "35-Macadam\/Greeley", "dir_desc": "To Oregon City Transit Center", "type": "BUS", "stop_seq": 3600, "stop_id": 3620, "stop_name": "SW Macadam & Nevada", "jurisdic": "Portland", "zipcode": "97219", "frequent": "False" }, "geometry": { "type": "Point", "coordinates": [ -122.67159926177327, 45.473039642132818 ] } },
{ "type": "Feature", "properties": { "rte": 35, "dir": 0, "rte_desc": "35-Macadam\/Greeley", "dir_desc": "To Oregon City Transit Center", "type": "BUS", "stop_seq": 3750, "stop_id": 4905, "stop_name": "SW Riverside & Radcliffe", "jurisdic": "Multnomah Co.", "zipcode": "97219", "frequent": "False" }, "geometry": { "type": "Point", "coordinates": [ -122.65989360355553, 45.452119219459235 ] } },
{ "type": "Feature", "properties": { "rte": 35, "dir": 0, "rte_desc": "35-Macadam\/Greeley", "dir_desc": "To Oregon City Transit Center", "type": "BUS", "stop_seq": 3800, "stop_id": 4906, "stop_name": "SW Riverside & Riverdale", "jurisdic": "Multnomah Co.", "zipcode": "97219", "frequent": "False" }, "geometry": { "type": "Point", "coordinates": [ -122.65909315446034, 45.450683149781078 ] } },
{ "type": "Feature", "properties": { "rte": 35, "dir": 0, "rte_desc": "35-Macadam\/Greeley", "dir_desc": "To Oregon City Transit Center", "type": "BUS", "stop_seq": 3850, "stop_id": 4909, "stop_name": "SW Riverside & Riverwood", "jurisdic": "Multnomah Co.", "zipcode": "97219", "frequent": "False" }, "geometry": { "type": "Point", "coordinates": [ -122.6573595313171, 45.44714885515463 ] } },
{ "type": "Feature", "properties": { "rte": 35, "dir": 0, "rte_desc": "35-Macadam\/Greeley", "dir_desc": "To Oregon City Transit Center", "type": "BUS", "stop_seq": 3900, "stop_id": 4902, "stop_name": "SW Riverside & Palatine Hill", "jurisdic": "Multnomah Co.", "zipcode": "97219", "frequent": "False" }, "geometry": { "type": "Point", "coordinates": [ -122.65691361297861, 45.445620723074754 ] } },
{ "type": "Feature", "properties": { "rte": 35, "dir": 0, "rte_desc": "35-Macadam\/Greeley", "dir_desc": "To Oregon City Transit Center", "type": "BUS", "stop_seq": 3950, "stop_id": 4900, "stop_name": "SW Riverside & Military", "jurisdic": "Multnomah Co.", "zipcode": "97219", "frequent": "False" }, "geometry": { "type": "Point", "coordinates": [ -122.65503902195081, 45.441689306729479 ] } },
{ "type": "Feature", "properties": { "rte": 35, "dir": 0, "rte_desc": "35-Macadam\/Greeley", "dir_desc": "To Oregon City Transit Center", "type": "BUS", "stop_seq": 4000, "stop_id": 4898, "stop_name": "SW Riverside & Breyman", "jurisdic": "Multnomah Co.", "zipcode": "97219", "frequent": "False" }, "geometry": { "type": "Point", "coordinates": [ -122.65351917240861, 45.435883788563224 ] } },
{ "type": "Feature", "properties": { "rte": 35, "dir": 0, "rte_desc": "35-Macadam\/Greeley", "dir_desc": "To Oregon City Transit Center", "type": "BUS", "stop_seq": 4050, "stop_id": 4899, "stop_name": "SW Riverside & Midvale", "jurisdic": "Clackamas Co.", "zipcode": "97034", "frequent": "False" }, "geometry": { "type": "Point", "coordinates": [ -122.65595599339674, 45.430953889149428 ] } },
{ "type": "Feature", "properties": { "rte": 35, "dir": 0, "rte_desc": "35-Macadam\/Greeley", "dir_desc": "To Oregon City Transit Center", "type": "BUS", "stop_seq": 4100, "stop_id": 4894, "stop_name": "SW Riverside & Briarwood", "jurisdic": "Clackamas Co.", "zipcode": "97034", "frequent": "False" }, "geometry": { "type": "Point", "coordinates": [ -122.65831167640306, 45.428389187167667 ] } },
{ "type": "Feature", "properties": { "rte": 35, "dir": 0, "rte_desc": "35-Macadam\/Greeley", "dir_desc": "To Oregon City Transit Center", "type": "BUS", "stop_seq": 4150, "stop_id": 5507, "stop_name": "N State & D Ave", "jurisdic": "Lake Oswego", "zipcode": "97034", "frequent": "False" }, "geometry": { "type": "Point", "coordinates": [ -122.66198954841083, 45.422667775988494 ] } },
{ "type": "Feature", "properties": { "rte": 35, "dir": 0, "rte_desc": "35-Macadam\/Greeley", "dir_desc": "To Oregon City Transit Center", "type": "BUS", "stop_seq": 4200, "stop_id": 5506, "stop_name": "N State & B Ave", "jurisdic": "Lake Oswego", "zipcode": "97034", "frequent": "False" }, "geometry": { "type": "Point", "coordinates": [ -122.66268255107336, 45.420769882540881 ] } },
{ "type": "Feature", "properties": { "rte": 35, "dir": 0, "rte_desc": "35-Macadam\/Greeley", "dir_desc": "To Oregon City Transit Center", "type": "BUS", "stop_seq": 4250, "stop_id": 147, "stop_name": "B Ave & Second St", "jurisdic": "Lake Oswego", "zipcode": "97034", "frequent": "False" }, "geometry": { "type": "Point", "coordinates": [ -122.66511312642291, 45.420844502521447 ] } },
{ "type": "Feature", "properties": { "rte": 35, "dir": 0, "rte_desc": "35-Macadam\/Greeley", "dir_desc": "To Oregon City Transit Center", "type": "BUS", "stop_seq": 4400, "stop_id": 5510, "stop_name": "N State & Foothills", "jurisdic": "Lake Oswego", "zipcode": "97034", "frequent": "False" }, "geometry": { "type": "Point", "coordinates": [ -122.66342260590528, 45.417550345100949 ] } },
{ "type": "Feature", "properties": { "rte": 35, "dir": 0, "rte_desc": "35-Macadam\/Greeley", "dir_desc": "To Oregon City Transit Center", "type": "BUS", "stop_seq": 4450, "stop_id": 5513, "stop_name": "N State & North Shore", "jurisdic": "Lake Oswego", "zipcode": "97034", "frequent": "False" }, "geometry": { "type": "Point", "coordinates": [ -122.66381258035241, 45.415758983854495 ] } },
{ "type": "Feature", "properties": { "rte": 35, "dir": 0, "rte_desc": "35-Macadam\/Greeley", "dir_desc": "To Oregon City Transit Center", "type": "BUS", "stop_seq": 4500, "stop_id": 5511, "stop_name": "S State & Middlecrest", "jurisdic": "Lake Oswego", "zipcode": "97034", "frequent": "False" }, "geometry": { "type": "Point", "coordinates": [ -122.66440894616217, 45.413159415282863 ] } },
{ "type": "Feature", "properties": { "rte": 35, "dir": 0, "rte_desc": "35-Macadam\/Greeley", "dir_desc": "To Oregon City Transit Center", "type": "BUS", "stop_seq": 4550, "stop_id": 6328, "stop_name": "Pacific Hwy & Burnham", "jurisdic": "Lake Oswego", "zipcode": "97034", "frequent": "False" }, "geometry": { "type": "Point", "coordinates": [ -122.66013506960722, 45.40739720236575 ] } },
{ "type": "Feature", "properties": { "rte": 35, "dir": 0, "rte_desc": "35-Macadam\/Greeley", "dir_desc": "To Oregon City Transit Center", "type": "BUS", "stop_seq": 4600, "stop_id": 6311, "stop_name": "Pacific Hwy (Hwy 43) & Cherry", "jurisdic": "Lake Oswego", "zipcode": "97034", "frequent": "False" }, "geometry": { "type": "Point", "coordinates": [ -122.65982883448631, 45.404015754028201 ] } },
{ "type": "Feature", "properties": { "rte": 35, "dir": 0, "rte_desc": "35-Macadam\/Greeley", "dir_desc": "To Oregon City Transit Center", "type": "BUS", "stop_seq": 4650, "stop_id": 6318, "stop_name": "Pacific Hwy & Glenmorrie", "jurisdic": "Lake Oswego", "zipcode": "97034", "frequent": "False" }, "geometry": { "type": "Point", "coordinates": [ -122.65766002014136, 45.401974483845777 ] } },
{ "type": "Feature", "properties": { "rte": 35, "dir": 0, "rte_desc": "35-Macadam\/Greeley", "dir_desc": "To Oregon City Transit Center", "type": "BUS", "stop_seq": 4700, "stop_id": 6336, "stop_name": "Pacific Hwy & Brookhurst Dr", "jurisdic": "Lake Oswego", "zipcode": "97034", "frequent": "False" }, "geometry": { "type": "Point", "coordinates": [ -122.65437878848208, 45.398837494700686 ] } },
{ "type": "Feature", "properties": { "rte": 35, "dir": 0, "rte_desc": "35-Macadam\/Greeley", "dir_desc": "To Oregon City Transit Center", "type": "BUS", "stop_seq": 4750, "stop_id": 6338, "stop_name": "Pacific Hwy & Marylbrook Dr", "jurisdic": "Lake Oswego", "zipcode": "97034", "frequent": "False" }, "geometry": { "type": "Point", "coordinates": [ -122.65248287902953, 45.397093972780638 ] } },
{ "type": "Feature", "properties": { "rte": 35, "dir": 0, "rte_desc": "35-Macadam\/Greeley", "dir_desc": "To Oregon City Transit Center", "type": "BUS", "stop_seq": 4800, "stop_id": 6302, "stop_name": "Willamette Dr & Arbor", "jurisdic": "West Linn", "zipcode": "97068", "frequent": "False" }, "geometry": { "type": "Point", "coordinates": [ -122.65070074613222, 45.395547383859608 ] } },
{ "type": "Feature", "properties": { "rte": 35, "dir": 0, "rte_desc": "35-Macadam\/Greeley", "dir_desc": "To Oregon City Transit Center", "type": "BUS", "stop_seq": 4850, "stop_id": 6347, "stop_name": "Willamette Dr & Shady Hollow", "jurisdic": "West Linn", "zipcode": "97068", "frequent": "False" }, "geometry": { "type": "Point", "coordinates": [ -122.64759489848161, 45.392741962387774 ] } },
{ "type": "Feature", "properties": { "rte": 35, "dir": 0, "rte_desc": "35-Macadam\/Greeley", "dir_desc": "To Oregon City Transit Center", "type": "BUS", "stop_seq": 4900, "stop_id": 6337, "stop_name": "Willamette Dr & Marylhurst Dr", "jurisdic": "West Linn", "zipcode": "97068", "frequent": "False" }, "geometry": { "type": "Point", "coordinates": [ -122.64618730522604, 45.391412901032929 ] } },
{ "type": "Feature", "properties": { "rte": 35, "dir": 0, "rte_desc": "35-Macadam\/Greeley", "dir_desc": "To Oregon City Transit Center", "type": "BUS", "stop_seq": 4950, "stop_id": 6350, "stop_name": "Willamette Dr & Walling Circle", "jurisdic": "West Linn", "zipcode": "97068", "frequent": "False" }, "geometry": { "type": "Point", "coordinates": [ -122.64414212231335, 45.389519816460748 ] } },
{ "type": "Feature", "properties": { "rte": 35, "dir": 0, "rte_desc": "35-Macadam\/Greeley", "dir_desc": "To Oregon City Transit Center", "type": "BUS", "stop_seq": 5000, "stop_id": 6319, "stop_name": "Willamette Dr & Hidden Springs", "jurisdic": "West Linn", "zipcode": "97068", "frequent": "False" }, "geometry": { "type": "Point", "coordinates": [ -122.6403487213524, 45.385991778844598 ] } },
{ "type": "Feature", "properties": { "rte": 35, "dir": 0, "rte_desc": "35-Macadam\/Greeley", "dir_desc": "To Oregon City Transit Center", "type": "BUS", "stop_seq": 5050, "stop_id": 6300, "stop_name": "Willamette Dr & Mapleton Dr", "jurisdic": "West Linn", "zipcode": "97068", "frequent": "False" }, "geometry": { "type": "Point", "coordinates": [ -122.63915925799694, 45.383955480235578 ] } },
{ "type": "Feature", "properties": { "rte": 35, "dir": 0, "rte_desc": "35-Macadam\/Greeley", "dir_desc": "To Oregon City Transit Center", "type": "BUS", "stop_seq": 5100, "stop_id": 6333, "stop_name": "Willamette Dr & Linwood", "jurisdic": "West Linn", "zipcode": "97068", "frequent": "False" }, "geometry": { "type": "Point", "coordinates": [ -122.63589282537049, 45.379073128631923 ] } },
{ "type": "Feature", "properties": { "rte": 35, "dir": 0, "rte_desc": "35-Macadam\/Greeley", "dir_desc": "To Oregon City Transit Center", "type": "BUS", "stop_seq": 5150, "stop_id": 6326, "stop_name": "Willamette Dr & Jolie Pointe", "jurisdic": "West Linn", "zipcode": "97068", "frequent": "False" }, "geometry": { "type": "Point", "coordinates": [ -122.63399371644708, 45.377437595620677 ] } },
{ "type": "Feature", "properties": { "rte": 35, "dir": 0, "rte_desc": "35-Macadam\/Greeley", "dir_desc": "To Oregon City Transit Center", "type": "BUS", "stop_seq": 5200, "stop_id": 6345, "stop_name": "Willamette Dr & Pimlico", "jurisdic": "West Linn", "zipcode": "97068", "frequent": "False" }, "geometry": { "type": "Point", "coordinates": [ -122.63277426093001, 45.376424076645804 ] } },
{ "type": "Feature", "properties": { "rte": 35, "dir": 0, "rte_desc": "35-Macadam\/Greeley", "dir_desc": "To Oregon City Transit Center", "type": "BUS", "stop_seq": 5250, "stop_id": 6324, "stop_name": "Willamette Dr & Hughes", "jurisdic": "West Linn", "zipcode": "97068", "frequent": "False" }, "geometry": { "type": "Point", "coordinates": [ -122.6301570624985, 45.374412392646121 ] } },
{ "type": "Feature", "properties": { "rte": 35, "dir": 0, "rte_desc": "35-Macadam\/Greeley", "dir_desc": "To Oregon City Transit Center", "type": "BUS", "stop_seq": 5300, "stop_id": 6304, "stop_name": "Willamette Dr & Barlow", "jurisdic": "West Linn", "zipcode": "97068", "frequent": "False" }, "geometry": { "type": "Point", "coordinates": [ -122.62859374849648, 45.373326879675467 ] } },
{ "type": "Feature", "properties": { "rte": 35, "dir": 0, "rte_desc": "35-Macadam\/Greeley", "dir_desc": "To Oregon City Transit Center", "type": "BUS", "stop_seq": 5350, "stop_id": 6314, "stop_name": "Willamette Dr & West A", "jurisdic": "West Linn", "zipcode": "97068", "frequent": "False" }, "geometry": { "type": "Point", "coordinates": [ -122.62330475398701, 45.370779128352865 ] } },
{ "type": "Feature", "properties": { "rte": 35, "dir": 0, "rte_desc": "35-Macadam\/Greeley", "dir_desc": "To Oregon City Transit Center", "type": "BUS", "stop_seq": 5400, "stop_id": 6322, "stop_name": "Willamette Dr & Holmes", "jurisdic": "West Linn", "zipcode": "97068", "frequent": "False" }, "geometry": { "type": "Point", "coordinates": [ -122.61903507786548, 45.369092206468302 ] } },
{ "type": "Feature", "properties": { "rte": 35, "dir": 0, "rte_desc": "35-Macadam\/Greeley", "dir_desc": "To Oregon City Transit Center", "type": "BUS", "stop_seq": 5450, "stop_id": 6352, "stop_name": "Willamette Dr & Webb", "jurisdic": "West Linn", "zipcode": "97068", "frequent": "False" }, "geometry": { "type": "Point", "coordinates": [ -122.61717314220384, 45.367983860306886 ] } },
{ "type": "Feature", "properties": { "rte": 35, "dir": 0, "rte_desc": "35-Macadam\/Greeley", "dir_desc": "To Oregon City Transit Center", "type": "BUS", "stop_seq": 5500, "stop_id": 6339, "stop_name": "Willamette Dr & McKillican", "jurisdic": "West Linn", "zipcode": "97068", "frequent": "False" }, "geometry": { "type": "Point", "coordinates": [ -122.61254013923107, 45.365642027056644 ] } },
{ "type": "Feature", "properties": { "rte": 35, "dir": 0, "rte_desc": "35-Macadam\/Greeley", "dir_desc": "To Oregon City Transit Center", "type": "BUS", "stop_seq": 5550, "stop_id": 6348, "stop_name": "Willamette Dr & Holly (near gas stn)", "jurisdic": "West Linn", "zipcode": "97068", "frequent": "False" }, "geometry": { "type": "Point", "coordinates": [ -122.61106116105186, 45.364338850714446 ] } },
{ "type": "Feature", "properties": { "rte": 35, "dir": 0, "rte_desc": "35-Macadam\/Greeley", "dir_desc": "To Oregon City Transit Center", "type": "BUS", "stop_seq": 5700, "stop_id": 8762, "stop_name": "Oregon City Transit Center", "jurisdic": "Oregon City", "zipcode": "97045", "frequent": "False" }, "geometry": { "type": "Point", "coordinates": [ -122.60462904123885, 45.359789583156576 ] } },
{ "type": "Feature", "properties": { "rte": 35, "dir": 0, "rte_desc": "35-Macadam\/Greeley", "dir_desc": "To Oregon City Transit Center", "type": "BUS", "stop_seq": 1500, "stop_id": 2209, "stop_name": "N Greeley & Killingsworth", "jurisdic": "Portland", "zipcode": "97217", "frequent": "False" }, "geometry": { "type": "Point", "coordinates": [ -122.69570079541514, 45.562852462068712 ] } },
{ "type": "Feature", "properties": { "rte": 35, "dir": 0, "rte_desc": "35-Macadam\/Greeley", "dir_desc": "To Oregon City Transit Center", "type": "BUS", "stop_seq": 1550, "stop_id": 2227, "stop_name": "N Greeley & Sumner", "jurisdic": "Portland", "zipcode": "97217", "frequent": "False" }, "geometry": { "type": "Point", "coordinates": [ -122.69479557558887, 45.56027515332444 ] } },
{ "type": "Feature", "properties": { "rte": 35, "dir": 0, "rte_desc": "35-Macadam\/Greeley", "dir_desc": "To Oregon City Transit Center", "type": "BUS", "stop_seq": 1600, "stop_id": 2202, "stop_name": "N Greeley & Humboldt", "jurisdic": "Portland", "zipcode": "97217", "frequent": "False" }, "geometry": { "type": "Point", "coordinates": [ -122.69374289675396, 45.558667414033245 ] } },
{ "type": "Feature", "properties": { "rte": 35, "dir": 0, "rte_desc": "35-Macadam\/Greeley", "dir_desc": "To Oregon City Transit Center", "type": "BUS", "stop_seq": 1650, "stop_id": 2196, "stop_name": "N Greeley & Going", "jurisdic": "Portland", "zipcode": "97217", "frequent": "False" }, "geometry": { "type": "Point", "coordinates": [ -122.69329385249478, 45.556473871927608 ] } },
{ "type": "Feature", "properties": { "rte": 35, "dir": 0, "rte_desc": "35-Macadam\/Greeley", "dir_desc": "To Oregon City Transit Center", "type": "BUS", "stop_seq": 1700, "stop_id": 2964, "stop_name": "N Interstate & Graham", "jurisdic": "Portland", "zipcode": "97227", "frequent": "False" }, "geometry": { "type": "Point", "coordinates": [ -122.67736955715107, 45.543273436489351 ] } },
{ "type": "Feature", "properties": { "rte": 35, "dir": 0, "rte_desc": "35-Macadam\/Greeley", "dir_desc": "To Oregon City Transit Center", "type": "BUS", "stop_seq": 1750, "stop_id": 2945, "stop_name": "N Interstate & Albina", "jurisdic": "Portland", "zipcode": "97227", "frequent": "False" }, "geometry": { "type": "Point", "coordinates": [ -122.67525197688801, 45.539267472543663 ] } },
{ "type": "Feature", "properties": { "rte": 35, "dir": 0, "rte_desc": "35-Macadam\/Greeley", "dir_desc": "To Oregon City Transit Center", "type": "BUS", "stop_seq": 1800, "stop_id": 11844, "stop_name": "N Interstate & Tillamook", "jurisdic": "Portland", "zipcode": "97227", "frequent": "False" }, "geometry": { "type": "Point", "coordinates": [ -122.67473078440209, 45.538047434970693 ] } },
{ "type": "Feature", "properties": { "rte": 35, "dir": 0, "rte_desc": "35-Macadam\/Greeley", "dir_desc": "To Oregon City Transit Center", "type": "BUS", "stop_seq": 2950, "stop_id": 13180, "stop_name": "SW River Pkwy & River Dr", "jurisdic": "Portland", "zipcode": "97201", "frequent": "False" }, "geometry": { "type": "Point", "coordinates": [ -122.67454422178685, 45.507147732679762 ] } },
{ "type": "Feature", "properties": { "rte": 35, "dir": 0, "rte_desc": "35-Macadam\/Greeley", "dir_desc": "To Oregon City Transit Center", "type": "BUS", "stop_seq": 3100, "stop_id": 12880, "stop_name": "SW Moody & Gaines", "jurisdic": "Portland", "zipcode": "97239", "frequent": "False" }, "geometry": { "type": "Point", "coordinates": [ -122.67194204426225, 45.496186156224816 ] } },
{ "type": "Feature", "properties": { "rte": 35, "dir": 0, "rte_desc": "35-Macadam\/Greeley", "dir_desc": "To Oregon City Transit Center", "type": "BUS", "stop_seq": 3150, "stop_id": 13183, "stop_name": "SW Moody & Thomas", "jurisdic": "Portland", "zipcode": "97239", "frequent": "False" }, "geometry": { "type": "Point", "coordinates": [ -122.67204199738083, 45.494388092717777 ] } },
{ "type": "Feature", "properties": { "rte": 35, "dir": 0, "rte_desc": "35-Macadam\/Greeley", "dir_desc": "To Oregon City Transit Center", "type": "BUS", "stop_seq": 1400, "stop_id": 2183, "stop_name": "N Greeley & Ainsworth", "jurisdic": "Portland", "zipcode": "97217", "frequent": "False" }, "geometry": { "type": "Point", "coordinates": [ -122.69566842620132, 45.566490761927902 ] } },
{ "type": "Feature", "properties": { "rte": 35, "dir": 0, "rte_desc": "35-Macadam\/Greeley", "dir_desc": "To Oregon City Transit Center", "type": "BUS", "stop_seq": 3000, "stop_id": 13601, "stop_name": "SW Moody & Meade South", "jurisdic": "Portland", "zipcode": "97201", "frequent": "False" }, "geometry": { "type": "Point", "coordinates": [ -122.67279257733263, 45.503114772859306 ] } },
{ "type": "Feature", "properties": { "rte": 35, "dir": 0, "rte_desc": "35-Macadam\/Greeley", "dir_desc": "To Oregon City Transit Center", "type": "BUS", "stop_seq": 75, "stop_id": 9635, "stop_name": "N Portsmouth & Willamette", "jurisdic": "Portland", "zipcode": "97203", "frequent": "False" }, "geometry": { "type": "Point", "coordinates": [ -122.72875963125276, 45.576353075733635 ] } },
{ "type": "Feature", "properties": { "rte": 35, "dir": 0, "rte_desc": "35-Macadam\/Greeley", "dir_desc": "To Oregon City Transit Center", "type": "BUS", "stop_seq": 3050, "stop_id": 12760, "stop_name": "SW Moody & Gibbs", "jurisdic": "Portland", "zipcode": "97239", "frequent": "False" }, "geometry": { "type": "Point", "coordinates": [ -122.67181484176656, 45.499337006424916 ] } },
{ "type": "Feature", "properties": { "rte": 35, "dir": 0, "rte_desc": "35-Macadam\/Greeley", "dir_desc": "To Oregon City Transit Center", "type": "BUS", "stop_seq": 4300, "stop_id": 8208, "stop_name": "Lake Oswego Transit Center", "jurisdic": "Lake Oswego", "zipcode": "97034", "frequent": "False" }, "geometry": { "type": "Point", "coordinates": [ -122.6678797461085, 45.420631062684826 ] } },
{ "type": "Feature", "properties": { "rte": 35, "dir": 1, "rte_desc": "35-Macadam\/Greeley", "dir_desc": "To University of Portland", "type": "BUS", "stop_seq": 900, "stop_id": 9216, "stop_name": "Willamette Dr & Lazy River Dr", "jurisdic": "West Linn", "zipcode": "97068", "frequent": "False" }, "geometry": { "type": "Point", "coordinates": [ -122.64614659953034, 45.391672091582947 ] } },
{ "type": "Feature", "properties": { "rte": 35, "dir": 1, "rte_desc": "35-Macadam\/Greeley", "dir_desc": "To University of Portland", "type": "BUS", "stop_seq": 950, "stop_id": 6346, "stop_name": "Willamette Dr & Shady Hollow", "jurisdic": "West Linn", "zipcode": "97068", "frequent": "False" }, "geometry": { "type": "Point", "coordinates": [ -122.64719811424763, 45.392606431945815 ] } },
{ "type": "Feature", "properties": { "rte": 35, "dir": 1, "rte_desc": "35-Macadam\/Greeley", "dir_desc": "To University of Portland", "type": "BUS", "stop_seq": 1000, "stop_id": 6301, "stop_name": "Willamette Dr & Arbor", "jurisdic": "West Linn", "zipcode": "97068", "frequent": "False" }, "geometry": { "type": "Point", "coordinates": [ -122.65023947201877, 45.395398271349976 ] } },
{ "type": "Feature", "properties": { "rte": 35, "dir": 1, "rte_desc": "35-Macadam\/Greeley", "dir_desc": "To University of Portland", "type": "BUS", "stop_seq": 1050, "stop_id": 6334, "stop_name": "Pacific Hwy & Furman", "jurisdic": "Lake Oswego", "zipcode": "97034", "frequent": "False" }, "geometry": { "type": "Point", "coordinates": [ -122.65278554070106, 45.397869621141524 ] } },
{ "type": "Feature", "properties": { "rte": 35, "dir": 1, "rte_desc": "35-Macadam\/Greeley", "dir_desc": "To University of Portland", "type": "BUS", "stop_seq": 1100, "stop_id": 6335, "stop_name": "Pacific Hwy & Holy Names Drive", "jurisdic": "Lake Oswego", "zipcode": "97034", "frequent": "False" }, "geometry": { "type": "Point", "coordinates": [ -122.6547266686626, 45.399599076080037 ] } },
{ "type": "Feature", "properties": { "rte": 35, "dir": 1, "rte_desc": "35-Macadam\/Greeley", "dir_desc": "To University of Portland", "type": "BUS", "stop_seq": 1150, "stop_id": 6317, "stop_name": "Pacific Hwy & Glenmorrie", "jurisdic": "Lake Oswego", "zipcode": "97034", "frequent": "False" }, "geometry": { "type": "Point", "coordinates": [ -122.65770714326636, 45.402214991295487 ] } },
{ "type": "Feature", "properties": { "rte": 35, "dir": 1, "rte_desc": "35-Macadam\/Greeley", "dir_desc": "To University of Portland", "type": "BUS", "stop_seq": 1200, "stop_id": 6310, "stop_name": "Pacific Hwy & Cherry", "jurisdic": "Lake Oswego", "zipcode": "97034", "frequent": "False" }, "geometry": { "type": "Point", "coordinates": [ -122.65951519028164, 45.403925021168234 ] } },
{ "type": "Feature", "properties": { "rte": 35, "dir": 1, "rte_desc": "35-Macadam\/Greeley", "dir_desc": "To University of Portland", "type": "BUS", "stop_seq": 1250, "stop_id": 6327, "stop_name": "Pacific Hwy & Laurel", "jurisdic": "Lake Oswego", "zipcode": "97034", "frequent": "False" }, "geometry": { "type": "Point", "coordinates": [ -122.6599598686026, 45.407851155718063 ] } },
{ "type": "Feature", "properties": { "rte": 35, "dir": 1, "rte_desc": "35-Macadam\/Greeley", "dir_desc": "To University of Portland", "type": "BUS", "stop_seq": 1300, "stop_id": 5514, "stop_name": "S State & Wilbur", "jurisdic": "Lake Oswego", "zipcode": "97034", "frequent": "False" }, "geometry": { "type": "Point", "coordinates": [ -122.66419191190266, 45.412934254725812 ] } },
{ "type": "Feature", "properties": { "rte": 35, "dir": 1, "rte_desc": "35-Macadam\/Greeley", "dir_desc": "To University of Portland", "type": "BUS", "stop_seq": 1350, "stop_id": 5512, "stop_name": "S State & North Shore", "jurisdic": "Lake Oswego", "zipcode": "97034", "frequent": "False" }, "geometry": { "type": "Point", "coordinates": [ -122.66364335825361, 45.415481084761517 ] } },
{ "type": "Feature", "properties": { "rte": 35, "dir": 1, "rte_desc": "35-Macadam\/Greeley", "dir_desc": "To University of Portland", "type": "BUS", "stop_seq": 1400, "stop_id": 5509, "stop_name": "N State & Foothills", "jurisdic": "Lake Oswego", "zipcode": "97034", "frequent": "False" }, "geometry": { "type": "Point", "coordinates": [ -122.66303359877243, 45.418046236674023 ] } },
{ "type": "Feature", "properties": { "rte": 35, "dir": 1, "rte_desc": "35-Macadam\/Greeley", "dir_desc": "To University of Portland", "type": "BUS", "stop_seq": 1450, "stop_id": 147, "stop_name": "B Ave & Second St", "jurisdic": "Lake Oswego", "zipcode": "97034", "frequent": "False" }, "geometry": { "type": "Point", "coordinates": [ -122.66511312642291, 45.420844502521447 ] } },
{ "type": "Feature", "properties": { "rte": 35, "dir": 1, "rte_desc": "35-Macadam\/Greeley", "dir_desc": "To University of Portland", "type": "BUS", "stop_seq": 1500, "stop_id": 8207, "stop_name": "Lake Oswego Transit Center", "jurisdic": "Lake Oswego", "zipcode": "97034", "frequent": "False" }, "geometry": { "type": "Point", "coordinates": [ -122.66798327071315, 45.4201779396234 ] } },
{ "type": "Feature", "properties": { "rte": 35, "dir": 1, "rte_desc": "35-Macadam\/Greeley", "dir_desc": "To University of Portland", "type": "BUS", "stop_seq": 1600, "stop_id": 5505, "stop_name": "N State & B Ave", "jurisdic": "Lake Oswego", "zipcode": "97034", "frequent": "False" }, "geometry": { "type": "Point", "coordinates": [ -122.6624017805584, 45.420964812233152 ] } },
{ "type": "Feature", "properties": { "rte": 35, "dir": 1, "rte_desc": "35-Macadam\/Greeley", "dir_desc": "To University of Portland", "type": "BUS", "stop_seq": 1650, "stop_id": 5508, "stop_name": "N State & E Ave", "jurisdic": "Lake Oswego", "zipcode": "97034", "frequent": "False" }, "geometry": { "type": "Point", "coordinates": [ -122.66122353123718, 45.423433500564059 ] } },
{ "type": "Feature", "properties": { "rte": 35, "dir": 1, "rte_desc": "35-Macadam\/Greeley", "dir_desc": "To University of Portland", "type": "BUS", "stop_seq": 1700, "stop_id": 4895, "stop_name": "SW Riverside & Briarwood", "jurisdic": "Clackamas Co.", "zipcode": "97034", "frequent": "False" }, "geometry": { "type": "Point", "coordinates": [ -122.65819854429445, 45.428090535042415 ] } },
{ "type": "Feature", "properties": { "rte": 35, "dir": 1, "rte_desc": "35-Macadam\/Greeley", "dir_desc": "To University of Portland", "type": "BUS", "stop_seq": 1750, "stop_id": 4896, "stop_name": "SW Riverside & Elk Rock", "jurisdic": "Clackamas Co.", "zipcode": "97034", "frequent": "False" }, "geometry": { "type": "Point", "coordinates": [ -122.65540475385536, 45.431455550756034 ] } },
{ "type": "Feature", "properties": { "rte": 35, "dir": 1, "rte_desc": "35-Macadam\/Greeley", "dir_desc": "To University of Portland", "type": "BUS", "stop_seq": 1800, "stop_id": 4897, "stop_name": "SW Riverside & Greenwood", "jurisdic": "Multnomah Co.", "zipcode": "97219", "frequent": "False" }, "geometry": { "type": "Point", "coordinates": [ -122.65333916702825, 45.435942065971481 ] } },
{ "type": "Feature", "properties": { "rte": 35, "dir": 1, "rte_desc": "35-Macadam\/Greeley", "dir_desc": "To University of Portland", "type": "BUS", "stop_seq": 1850, "stop_id": 4901, "stop_name": "SW Riverside & Military", "jurisdic": "Multnomah Co.", "zipcode": "97219", "frequent": "False" }, "geometry": { "type": "Point", "coordinates": [ -122.65460732061953, 45.441516371477057 ] } },
{ "type": "Feature", "properties": { "rte": 35, "dir": 1, "rte_desc": "35-Macadam\/Greeley", "dir_desc": "To University of Portland", "type": "BUS", "stop_seq": 1900, "stop_id": 4904, "stop_name": "SW Riverside & Palatine Hill", "jurisdic": "Multnomah Co.", "zipcode": "97219", "frequent": "False" }, "geometry": { "type": "Point", "coordinates": [ -122.65669379014172, 45.446027928568903 ] } },
{ "type": "Feature", "properties": { "rte": 35, "dir": 1, "rte_desc": "35-Macadam\/Greeley", "dir_desc": "To University of Portland", "type": "BUS", "stop_seq": 1950, "stop_id": 4910, "stop_name": "SW Riverside & Riverwood", "jurisdic": "Multnomah Co.", "zipcode": "97219", "frequent": "False" }, "geometry": { "type": "Point", "coordinates": [ -122.65697128446803, 45.446976562539362 ] } },
{ "type": "Feature", "properties": { "rte": 35, "dir": 1, "rte_desc": "35-Macadam\/Greeley", "dir_desc": "To University of Portland", "type": "BUS", "stop_seq": 2000, "stop_id": 4908, "stop_name": "SW Riverside & Riverdale", "jurisdic": "Multnomah Co.", "zipcode": "97219", "frequent": "False" }, "geometry": { "type": "Point", "coordinates": [ -122.6589632122047, 45.450781839725849 ] } },
{ "type": "Feature", "properties": { "rte": 35, "dir": 1, "rte_desc": "35-Macadam\/Greeley", "dir_desc": "To University of Portland", "type": "BUS", "stop_seq": 2100, "stop_id": 3622, "stop_name": "SW Macadam & Nevada", "jurisdic": "Portland", "zipcode": "97219", "frequent": "False" }, "geometry": { "type": "Point", "coordinates": [ -122.6713491277422, 45.472876966089601 ] } },
{ "type": "Feature", "properties": { "rte": 35, "dir": 1, "rte_desc": "35-Macadam\/Greeley", "dir_desc": "To University of Portland", "type": "BUS", "stop_seq": 2150, "stop_id": 3608, "stop_name": "SW Macadam & Florida", "jurisdic": "Portland", "zipcode": "97219", "frequent": "False" }, "geometry": { "type": "Point", "coordinates": [ -122.67157689607438, 45.475178391497423 ] } },
{ "type": "Feature", "properties": { "rte": 35, "dir": 1, "rte_desc": "35-Macadam\/Greeley", "dir_desc": "To University of Portland", "type": "BUS", "stop_seq": 2200, "stop_id": 3619, "stop_name": "SW Macadam & Nebraska", "jurisdic": "Portland", "zipcode": "97239", "frequent": "False" }, "geometry": { "type": "Point", "coordinates": [ -122.67190248900762, 45.477128369296246 ] } },
{ "type": "Feature", "properties": { "rte": 35, "dir": 1, "rte_desc": "35-Macadam\/Greeley", "dir_desc": "To University of Portland", "type": "BUS", "stop_seq": 2250, "stop_id": 11812, "stop_name": "SW Macadam & Carolina", "jurisdic": "Portland", "zipcode": "97239", "frequent": "False" }, "geometry": { "type": "Point", "coordinates": [ -122.67239565444063, 45.478577138343368 ] } },
{ "type": "Feature", "properties": { "rte": 35, "dir": 1, "rte_desc": "35-Macadam\/Greeley", "dir_desc": "To University of Portland", "type": "BUS", "stop_seq": 2300, "stop_id": 3623, "stop_name": "SW Macadam & Pendleton", "jurisdic": "Portland", "zipcode": "97239", "frequent": "False" }, "geometry": { "type": "Point", "coordinates": [ -122.67317102938658, 45.480911150189357 ] } },
{ "type": "Feature", "properties": { "rte": 35, "dir": 1, "rte_desc": "35-Macadam\/Greeley", "dir_desc": "To University of Portland", "type": "BUS", "stop_seq": 2350, "stop_id": 3610, "stop_name": "SW Macadam & Flower", "jurisdic": "Portland", "zipcode": "97239", "frequent": "False" }, "geometry": { "type": "Point", "coordinates": [ -122.67372612199185, 45.482517443969904 ] } },
{ "type": "Feature", "properties": { "rte": 35, "dir": 1, "rte_desc": "35-Macadam\/Greeley", "dir_desc": "To University of Portland", "type": "BUS", "stop_seq": 2400, "stop_id": 3603, "stop_name": "SW Macadam & Boundary", "jurisdic": "Portland", "zipcode": "97239", "frequent": "False" }, "geometry": { "type": "Point", "coordinates": [ -122.67489115635182, 45.484877803722647 ] } },
{ "type": "Feature", "properties": { "rte": 35, "dir": 1, "rte_desc": "35-Macadam\/Greeley", "dir_desc": "To University of Portland", "type": "BUS", "stop_seq": 2450, "stop_id": 3616, "stop_name": "SW Macadam & Julia", "jurisdic": "Portland", "zipcode": "97239", "frequent": "False" }, "geometry": { "type": "Point", "coordinates": [ -122.6750468829172, 45.488049349440693 ] } },
{ "type": "Feature", "properties": { "rte": 35, "dir": 1, "rte_desc": "35-Macadam\/Greeley", "dir_desc": "To University of Portland", "type": "BUS", "stop_seq": 2500, "stop_id": 3613, "stop_name": "SW Macadam & Hamilton Ct", "jurisdic": "Portland", "zipcode": "97239", "frequent": "False" }, "geometry": { "type": "Point", "coordinates": [ -122.67359572980872, 45.489820401057166 ] } },
{ "type": "Feature", "properties": { "rte": 35, "dir": 1, "rte_desc": "35-Macadam\/Greeley", "dir_desc": "To University of Portland", "type": "BUS", "stop_seq": 2650, "stop_id": 3611, "stop_name": "SW Macadam & Gaines", "jurisdic": "Portland", "zipcode": "97239", "frequent": "False" }, "geometry": { "type": "Point", "coordinates": [ -122.67280350491775, 45.49638174832458 ] } },
{ "type": "Feature", "properties": { "rte": 35, "dir": 1, "rte_desc": "35-Macadam\/Greeley", "dir_desc": "To University of Portland", "type": "BUS", "stop_seq": 3450, "stop_id": 1612, "stop_name": "NW Everett & 2nd", "jurisdic": "Portland", "zipcode": "97209", "frequent": "False" }, "geometry": { "type": "Point", "coordinates": [ -122.67259670124606, 45.52522407884581 ] } },
{ "type": "Feature", "properties": { "rte": 35, "dir": 1, "rte_desc": "35-Macadam\/Greeley", "dir_desc": "To University of Portland", "type": "BUS", "stop_seq": 3650, "stop_id": 11814, "stop_name": "N Interstate & Rose Quarter TC", "jurisdic": "Portland", "zipcode": "97232", "frequent": "False" }, "geometry": { "type": "Point", "coordinates": [ -122.66632233485588, 45.529724332010915 ] } },
{ "type": "Feature", "properties": { "rte": 35, "dir": 1, "rte_desc": "35-Macadam\/Greeley", "dir_desc": "To University of Portland", "type": "BUS", "stop_seq": 3700, "stop_id": 3365, "stop_name": "N Interstate & Larrabee", "jurisdic": "Portland", "zipcode": "97227", "frequent": "False" }, "geometry": { "type": "Point", "coordinates": [ -122.67120144070805, 45.532536556207667 ] } },
{ "type": "Feature", "properties": { "rte": 35, "dir": 1, "rte_desc": "35-Macadam\/Greeley", "dir_desc": "To University of Portland", "type": "BUS", "stop_seq": 3750, "stop_id": 11840, "stop_name": "N Interstate & Tillamook", "jurisdic": "Portland", "zipcode": "97227", "frequent": "False" }, "geometry": { "type": "Point", "coordinates": [ -122.67442611773053, 45.538114602994469 ] } },
{ "type": "Feature", "properties": { "rte": 35, "dir": 1, "rte_desc": "35-Macadam\/Greeley", "dir_desc": "To University of Portland", "type": "BUS", "stop_seq": 3800, "stop_id": 11839, "stop_name": "N Interstate & Albina", "jurisdic": "Portland", "zipcode": "97227", "frequent": "False" }, "geometry": { "type": "Point", "coordinates": [ -122.67523410126826, 45.539549349578138 ] } },
{ "type": "Feature", "properties": { "rte": 35, "dir": 1, "rte_desc": "35-Macadam\/Greeley", "dir_desc": "To University of Portland", "type": "BUS", "stop_seq": 3850, "stop_id": 2962, "stop_name": "N Interstate & Graham", "jurisdic": "Portland", "zipcode": "97227", "frequent": "False" }, "geometry": { "type": "Point", "coordinates": [ -122.67706507557486, 45.543114524931539 ] } },
{ "type": "Feature", "properties": { "rte": 35, "dir": 1, "rte_desc": "35-Macadam\/Greeley", "dir_desc": "To University of Portland", "type": "BUS", "stop_seq": 3900, "stop_id": 2195, "stop_name": "N Greeley & Going Overpass", "jurisdic": "Portland", "zipcode": "97217", "frequent": "False" }, "geometry": { "type": "Point", "coordinates": [ -122.69230792305461, 45.555588671703788 ] } },
{ "type": "Feature", "properties": { "rte": 35, "dir": 1, "rte_desc": "35-Macadam\/Greeley", "dir_desc": "To University of Portland", "type": "BUS", "stop_seq": 3950, "stop_id": 2201, "stop_name": "N Greeley & Humboldt", "jurisdic": "Portland", "zipcode": "97217", "frequent": "False" }, "geometry": { "type": "Point", "coordinates": [ -122.69353306619102, 45.558733359922101 ] } },
{ "type": "Feature", "properties": { "rte": 35, "dir": 1, "rte_desc": "35-Macadam\/Greeley", "dir_desc": "To University of Portland", "type": "BUS", "stop_seq": 4000, "stop_id": 2226, "stop_name": "N Greeley & Sumner", "jurisdic": "Portland", "zipcode": "97217", "frequent": "False" }, "geometry": { "type": "Point", "coordinates": [ -122.69455582858996, 45.560366445644732 ] } },
{ "type": "Feature", "properties": { "rte": 35, "dir": 1, "rte_desc": "35-Macadam\/Greeley", "dir_desc": "To University of Portland", "type": "BUS", "stop_seq": 4050, "stop_id": 2208, "stop_name": "N Greeley & Killingsworth", "jurisdic": "Portland", "zipcode": "97217", "frequent": "False" }, "geometry": { "type": "Point", "coordinates": [ -122.69552866337358, 45.562591154125691 ] } },
{ "type": "Feature", "properties": { "rte": 35, "dir": 1, "rte_desc": "35-Macadam\/Greeley", "dir_desc": "To University of Portland", "type": "BUS", "stop_seq": 4100, "stop_id": 2206, "stop_name": "N Greeley & Jessup", "jurisdic": "Portland", "zipcode": "97217", "frequent": "False" }, "geometry": { "type": "Point", "coordinates": [ -122.69551122828197, 45.56447727458422 ] } },
{ "type": "Feature", "properties": { "rte": 35, "dir": 1, "rte_desc": "35-Macadam\/Greeley", "dir_desc": "To University of Portland", "type": "BUS", "stop_seq": 4150, "stop_id": 2182, "stop_name": "N Greeley & Ainsworth", "jurisdic": "Portland", "zipcode": "97217", "frequent": "False" }, "geometry": { "type": "Point", "coordinates": [ -122.69549822502445, 45.566281555036326 ] } },
{ "type": "Feature", "properties": { "rte": 35, "dir": 1, "rte_desc": "35-Macadam\/Greeley", "dir_desc": "To University of Portland", "type": "BUS", "stop_seq": 4200, "stop_id": 2197, "stop_name": "N Greeley & Holman", "jurisdic": "Portland", "zipcode": "97217", "frequent": "False" }, "geometry": { "type": "Point", "coordinates": [ -122.69547752608655, 45.568095212881751 ] } },
{ "type": "Feature", "properties": { "rte": 35, "dir": 1, "rte_desc": "35-Macadam\/Greeley", "dir_desc": "To University of Portland", "type": "BUS", "stop_seq": 4250, "stop_id": 2221, "stop_name": "N Greeley & Rosa Parks Way", "jurisdic": "Portland", "zipcode": "97217", "frequent": "False" }, "geometry": { "type": "Point", "coordinates": [ -122.69545677564996, 45.570298619063067 ] } },
{ "type": "Feature", "properties": { "rte": 35, "dir": 1, "rte_desc": "35-Macadam\/Greeley", "dir_desc": "To University of Portland", "type": "BUS", "stop_seq": 4300, "stop_id": 2190, "stop_name": "N Greeley & Dekum", "jurisdic": "Portland", "zipcode": "97217", "frequent": "False" }, "geometry": { "type": "Point", "coordinates": [ -122.6954418520402, 45.571643154455685 ] } },
{ "type": "Feature", "properties": { "rte": 35, "dir": 1, "rte_desc": "35-Macadam\/Greeley", "dir_desc": "To University of Portland", "type": "BUS", "stop_seq": 4350, "stop_id": 2185, "stop_name": "N Greeley & Bryant", "jurisdic": "Portland", "zipcode": "97217", "frequent": "False" }, "geometry": { "type": "Point", "coordinates": [ -122.69544083113153, 45.573466181093266 ] } },
{ "type": "Feature", "properties": { "rte": 35, "dir": 1, "rte_desc": "35-Macadam\/Greeley", "dir_desc": "To University of Portland", "type": "BUS", "stop_seq": 4450, "stop_id": 2212, "stop_name": "N Greeley & Lombard St", "jurisdic": "Portland", "zipcode": "97217", "frequent": "False" }, "geometry": { "type": "Point", "coordinates": [ -122.69540279749661, 45.576728726981187 ] } },
{ "type": "Feature", "properties": { "rte": 35, "dir": 1, "rte_desc": "35-Macadam\/Greeley", "dir_desc": "To University of Portland", "type": "BUS", "stop_seq": 4500, "stop_id": 3535, "stop_name": "N Lombard & Peninsular", "jurisdic": "Portland", "zipcode": "97217", "frequent": "False" }, "geometry": { "type": "Point", "coordinates": [ -122.69685796646013, 45.577206898592955 ] } },
{ "type": "Feature", "properties": { "rte": 35, "dir": 1, "rte_desc": "35-Macadam\/Greeley", "dir_desc": "To University of Portland", "type": "BUS", "stop_seq": 4550, "stop_id": 4432, "stop_name": "N Peninsular & Farragut", "jurisdic": "Portland", "zipcode": "97217", "frequent": "False" }, "geometry": { "type": "Point", "coordinates": [ -122.69714439417568, 45.579199972082037 ] } },
{ "type": "Feature", "properties": { "rte": 35, "dir": 1, "rte_desc": "35-Macadam\/Greeley", "dir_desc": "To University of Portland", "type": "BUS", "stop_seq": 4600, "stop_id": 4438, "stop_name": "N Peninsular & Watts", "jurisdic": "Portland", "zipcode": "97217", "frequent": "False" }, "geometry": { "type": "Point", "coordinates": [ -122.69713453209688, 45.58134914235054 ] } },
{ "type": "Feature", "properties": { "rte": 35, "dir": 1, "rte_desc": "35-Macadam\/Greeley", "dir_desc": "To University of Portland", "type": "BUS", "stop_seq": 4650, "stop_id": 4434, "stop_name": "N Peninsular & Halleck", "jurisdic": "Portland", "zipcode": "97217", "frequent": "False" }, "geometry": { "type": "Point", "coordinates": [ -122.69715519676279, 45.582514915744632 ] } },
{ "type": "Feature", "properties": { "rte": 35, "dir": 1, "rte_desc": "35-Macadam\/Greeley", "dir_desc": "To University of Portland", "type": "BUS", "stop_seq": 4700, "stop_id": 6384, "stop_name": "N Willis & Peninsular", "jurisdic": "Portland", "zipcode": "97217", "frequent": "False" }, "geometry": { "type": "Point", "coordinates": [ -122.69764263988982, 45.584061392813339 ] } },
{ "type": "Feature", "properties": { "rte": 35, "dir": 1, "rte_desc": "35-Macadam\/Greeley", "dir_desc": "To University of Portland", "type": "BUS", "stop_seq": 4750, "stop_id": 6373, "stop_name": "N Willis & Bayard", "jurisdic": "Portland", "zipcode": "97217", "frequent": "False" }, "geometry": { "type": "Point", "coordinates": [ -122.70032600631649, 45.584085067725049 ] } },
{ "type": "Feature", "properties": { "rte": 35, "dir": 1, "rte_desc": "35-Macadam\/Greeley", "dir_desc": "To University of Portland", "type": "BUS", "stop_seq": 4800, "stop_id": 6378, "stop_name": "N Willis & Wabash", "jurisdic": "Portland", "zipcode": "97217", "frequent": "False" }, "geometry": { "type": "Point", "coordinates": [ -122.70276182789243, 45.584070983782269 ] } },
{ "type": "Feature", "properties": { "rte": 35, "dir": 1, "rte_desc": "35-Macadam\/Greeley", "dir_desc": "To University of Portland", "type": "BUS", "stop_seq": 4850, "stop_id": 6387, "stop_name": "N Willis & Washburne", "jurisdic": "Portland", "zipcode": "97217", "frequent": "False" }, "geometry": { "type": "Point", "coordinates": [ -122.7055975657814, 45.584071261055762 ] } },
{ "type": "Feature", "properties": { "rte": 35, "dir": 1, "rte_desc": "35-Macadam\/Greeley", "dir_desc": "To University of Portland", "type": "BUS", "stop_seq": 4900, "stop_id": 10611, "stop_name": "N Willis & Chautauqua", "jurisdic": "Portland", "zipcode": "97217", "frequent": "False" }, "geometry": { "type": "Point", "coordinates": [ -122.70765923298103, 45.584104848054032 ] } },
{ "type": "Feature", "properties": { "rte": 35, "dir": 1, "rte_desc": "35-Macadam\/Greeley", "dir_desc": "To University of Portland", "type": "BUS", "stop_seq": 4950, "stop_id": 6389, "stop_name": "N Willis & Wayland", "jurisdic": "Portland", "zipcode": "97203", "frequent": "False" }, "geometry": { "type": "Point", "coordinates": [ -122.71114402325622, 45.584089252212642 ] } },
{ "type": "Feature", "properties": { "rte": 35, "dir": 1, "rte_desc": "35-Macadam\/Greeley", "dir_desc": "To University of Portland", "type": "BUS", "stop_seq": 5000, "stop_id": 6391, "stop_name": "N Willis & Woolsey", "jurisdic": "Portland", "zipcode": "97203", "frequent": "False" }, "geometry": { "type": "Point", "coordinates": [ -122.71333752548207, 45.584105486368131 ] } },
{ "type": "Feature", "properties": { "rte": 35, "dir": 1, "rte_desc": "35-Macadam\/Greeley", "dir_desc": "To University of Portland", "type": "BUS", "stop_seq": 5050, "stop_id": 6382, "stop_name": "N Willis & Newman", "jurisdic": "Portland", "zipcode": "97203", "frequent": "False" }, "geometry": { "type": "Point", "coordinates": [ -122.71563893814282, 45.584155406616752 ] } },
{ "type": "Feature", "properties": { "rte": 35, "dir": 1, "rte_desc": "35-Macadam\/Greeley", "dir_desc": "To University of Portland", "type": "BUS", "stop_seq": 5100, "stop_id": 6375, "stop_name": "N Willis & Druid", "jurisdic": "Portland", "zipcode": "97203", "frequent": "False" }, "geometry": { "type": "Point", "coordinates": [ -122.71775139659276, 45.584139697786334 ] } },
{ "type": "Feature", "properties": { "rte": 35, "dir": 1, "rte_desc": "35-Macadam\/Greeley", "dir_desc": "To University of Portland", "type": "BUS", "stop_seq": 5150, "stop_id": 6379, "stop_name": "N Willis & Hereford", "jurisdic": "Portland", "zipcode": "97203", "frequent": "False" }, "geometry": { "type": "Point", "coordinates": [ -122.72059888202401, 45.584110022897235 ] } },
{ "type": "Feature", "properties": { "rte": 35, "dir": 1, "rte_desc": "35-Macadam\/Greeley", "dir_desc": "To University of Portland", "type": "BUS", "stop_seq": 5200, "stop_id": 6385, "stop_name": "N Willis & Portsmouth", "jurisdic": "Portland", "zipcode": "97203", "frequent": "False" }, "geometry": { "type": "Point", "coordinates": [ -122.72238098272445, 45.584427619505249 ] } },
{ "type": "Feature", "properties": { "rte": 35, "dir": 1, "rte_desc": "35-Macadam\/Greeley", "dir_desc": "To University of Portland", "type": "BUS", "stop_seq": 5250, "stop_id": 4494, "stop_name": "N Portsmouth & Lombard St", "jurisdic": "Portland", "zipcode": "97203", "frequent": "False" }, "geometry": { "type": "Point", "coordinates": [ -122.72394435920701, 45.582812364084589 ] } },
{ "type": "Feature", "properties": { "rte": 35, "dir": 1, "rte_desc": "35-Macadam\/Greeley", "dir_desc": "To University of Portland", "type": "BUS", "stop_seq": 5300, "stop_id": 4496, "stop_name": "N Portsmouth & Oberlin", "jurisdic": "Portland", "zipcode": "97203", "frequent": "False" }, "geometry": { "type": "Point", "coordinates": [ -122.72517984202371, 45.581152348678415 ] } },
{ "type": "Feature", "properties": { "rte": 35, "dir": 1, "rte_desc": "35-Macadam\/Greeley", "dir_desc": "To University of Portland", "type": "BUS", "stop_seq": 5350, "stop_id": 4498, "stop_name": "N Portsmouth & Syracuse", "jurisdic": "Portland", "zipcode": "97203", "frequent": "False" }, "geometry": { "type": "Point", "coordinates": [ -122.72622645770061, 45.579729112943916 ] } },
{ "type": "Feature", "properties": { "rte": 35, "dir": 1, "rte_desc": "35-Macadam\/Greeley", "dir_desc": "To University of Portland", "type": "BUS", "stop_seq": 5400, "stop_id": 4491, "stop_name": "N Portsmouth & Amherst", "jurisdic": "Portland", "zipcode": "97203", "frequent": "False" }, "geometry": { "type": "Point", "coordinates": [ -122.72727849176158, 45.578279065276071 ] } },
{ "type": "Feature", "properties": { "rte": 35, "dir": 1, "rte_desc": "35-Macadam\/Greeley", "dir_desc": "To University of Portland", "type": "BUS", "stop_seq": 2575, "stop_id": 13184, "stop_name": "SW Macadam & Lowell", "jurisdic": "Portland", "zipcode": "97239", "frequent": "False" }, "geometry": { "type": "Point", "coordinates": [ -122.67286321394967, 45.493472188861681 ] } },
{ "type": "Feature", "properties": { "rte": 35, "dir": 1, "rte_desc": "35-Macadam\/Greeley", "dir_desc": "To University of Portland", "type": "BUS", "stop_seq": 3100, "stop_id": 2567, "stop_name": "200 Block SW Harrison", "jurisdic": "Portland", "zipcode": "97201", "frequent": "False" }, "geometry": { "type": "Point", "coordinates": [ -122.67892997079143, 45.510139952524298 ] } },
{ "type": "Feature", "properties": { "rte": 35, "dir": 1, "rte_desc": "35-Macadam\/Greeley", "dir_desc": "To University of Portland", "type": "BUS", "stop_seq": 3200, "stop_id": 11486, "stop_name": "SW 6th & Columbia", "jurisdic": "Portland", "zipcode": "97201", "frequent": "False" }, "geometry": { "type": "Point", "coordinates": [ -122.68109464303541, 45.514266728169552 ] } },
{ "type": "Feature", "properties": { "rte": 35, "dir": 1, "rte_desc": "35-Macadam\/Greeley", "dir_desc": "To University of Portland", "type": "BUS", "stop_seq": 3250, "stop_id": 7789, "stop_name": "SW 6th & Salmon", "jurisdic": "Portland", "zipcode": "97204", "frequent": "False" }, "geometry": { "type": "Point", "coordinates": [ -122.67968720178951, 45.5169337336621 ] } },
{ "type": "Feature", "properties": { "rte": 35, "dir": 1, "rte_desc": "35-Macadam\/Greeley", "dir_desc": "To University of Portland", "type": "BUS", "stop_seq": 3300, "stop_id": 7803, "stop_name": "SW 6th & Washington", "jurisdic": "Portland", "zipcode": "97204", "frequent": "False" }, "geometry": { "type": "Point", "coordinates": [ -122.67785941932118, 45.52024400391965 ] } },
{ "type": "Feature", "properties": { "rte": 35, "dir": 1, "rte_desc": "35-Macadam\/Greeley", "dir_desc": "To University of Portland", "type": "BUS", "stop_seq": 50, "stop_id": 8762, "stop_name": "Oregon City Transit Center", "jurisdic": "Oregon City", "zipcode": "97045", "frequent": "False" }, "geometry": { "type": "Point", "coordinates": [ -122.60462904123885, 45.359789583156576 ] } },
{ "type": "Feature", "properties": { "rte": 35, "dir": 1, "rte_desc": "35-Macadam\/Greeley", "dir_desc": "To University of Portland", "type": "BUS", "stop_seq": 250, "stop_id": 6320, "stop_name": "Willamette Dr & Holly", "jurisdic": "West Linn", "zipcode": "97068", "frequent": "False" }, "geometry": { "type": "Point", "coordinates": [ -122.61105896381123, 45.364690868191126 ] } },
{ "type": "Feature", "properties": { "rte": 35, "dir": 1, "rte_desc": "35-Macadam\/Greeley", "dir_desc": "To University of Portland", "type": "BUS", "stop_seq": 300, "stop_id": 6306, "stop_name": "Willamette Dr & Burns", "jurisdic": "West Linn", "zipcode": "97068", "frequent": "False" }, "geometry": { "type": "Point", "coordinates": [ -122.61384450522334, 45.366552198955411 ] } },
{ "type": "Feature", "properties": { "rte": 35, "dir": 1, "rte_desc": "35-Macadam\/Greeley", "dir_desc": "To University of Portland", "type": "BUS", "stop_seq": 400, "stop_id": 6321, "stop_name": "Willamette Dr & Holmes", "jurisdic": "West Linn", "zipcode": "97068", "frequent": "False" }, "geometry": { "type": "Point", "coordinates": [ -122.61851291011325, 45.368945331147849 ] } },
{ "type": "Feature", "properties": { "rte": 35, "dir": 1, "rte_desc": "35-Macadam\/Greeley", "dir_desc": "To University of Portland", "type": "BUS", "stop_seq": 450, "stop_id": 6312, "stop_name": "Willamette Dr & Elliott", "jurisdic": "West Linn", "zipcode": "97068", "frequent": "False" }, "geometry": { "type": "Point", "coordinates": [ -122.6235193865937, 45.371086172218661 ] } },
{ "type": "Feature", "properties": { "rte": 35, "dir": 1, "rte_desc": "35-Macadam\/Greeley", "dir_desc": "To University of Portland", "type": "BUS", "stop_seq": 500, "stop_id": 6303, "stop_name": "Willamette Dr & Barlow", "jurisdic": "West Linn", "zipcode": "97068", "frequent": "False" }, "geometry": { "type": "Point", "coordinates": [ -122.62818889829921, 45.373267614710279 ] } },
{ "type": "Feature", "properties": { "rte": 35, "dir": 1, "rte_desc": "35-Macadam\/Greeley", "dir_desc": "To University of Portland", "type": "BUS", "stop_seq": 550, "stop_id": 6323, "stop_name": "Willamette Dr & Hughes", "jurisdic": "West Linn", "zipcode": "97068", "frequent": "False" }, "geometry": { "type": "Point", "coordinates": [ -122.63022873757265, 45.37461208552979 ] } },
{ "type": "Feature", "properties": { "rte": 35, "dir": 1, "rte_desc": "35-Macadam\/Greeley", "dir_desc": "To University of Portland", "type": "BUS", "stop_seq": 600, "stop_id": 6344, "stop_name": "Willamette Dr & Pimlico", "jurisdic": "West Linn", "zipcode": "97068", "frequent": "False" }, "geometry": { "type": "Point", "coordinates": [ -122.63268579342413, 45.376568748079421 ] } },
{ "type": "Feature", "properties": { "rte": 35, "dir": 1, "rte_desc": "35-Macadam\/Greeley", "dir_desc": "To University of Portland", "type": "BUS", "stop_seq": 650, "stop_id": 6325, "stop_name": "Willamette Dr & Jolie Pointe", "jurisdic": "West Linn", "zipcode": "97068", "frequent": "False" }, "geometry": { "type": "Point", "coordinates": [ -122.63394938202156, 45.377663308728231 ] } },
{ "type": "Feature", "properties": { "rte": 35, "dir": 1, "rte_desc": "35-Macadam\/Greeley", "dir_desc": "To University of Portland", "type": "BUS", "stop_seq": 700, "stop_id": 6332, "stop_name": "Willamette Dr & Mark Ln", "jurisdic": "West Linn", "zipcode": "97068", "frequent": "False" }, "geometry": { "type": "Point", "coordinates": [ -122.63544552104746, 45.378966153869804 ] } },
{ "type": "Feature", "properties": { "rte": 35, "dir": 1, "rte_desc": "35-Macadam\/Greeley", "dir_desc": "To University of Portland", "type": "BUS", "stop_seq": 750, "stop_id": 6331, "stop_name": "Willamette Dr & Mapleton", "jurisdic": "West Linn", "zipcode": "97068", "frequent": "False" }, "geometry": { "type": "Point", "coordinates": [ -122.63893753865828, 45.384374793375024 ] } },
{ "type": "Feature", "properties": { "rte": 35, "dir": 1, "rte_desc": "35-Macadam\/Greeley", "dir_desc": "To University of Portland", "type": "BUS", "stop_seq": 800, "stop_id": 6309, "stop_name": "Willamette Dr & Cedar Oak", "jurisdic": "West Linn", "zipcode": "97068", "frequent": "False" }, "geometry": { "type": "Point", "coordinates": [ -122.6415315430833, 45.38744217046856 ] } },
{ "type": "Feature", "properties": { "rte": 35, "dir": 1, "rte_desc": "35-Macadam\/Greeley", "dir_desc": "To University of Portland", "type": "BUS", "stop_seq": 850, "stop_id": 6349, "stop_name": "Willamette Dr & Walling Way", "jurisdic": "West Linn", "zipcode": "97068", "frequent": "False" }, "geometry": { "type": "Point", "coordinates": [ -122.64408820365227, 45.389812682766021 ] } },
{ "type": "Feature", "properties": { "rte": 35, "dir": 1, "rte_desc": "35-Macadam\/Greeley", "dir_desc": "To University of Portland", "type": "BUS", "stop_seq": 3400, "stop_id": 8886, "stop_name": "NW Everett & 5th", "jurisdic": "Portland", "zipcode": "97209", "frequent": "False" }, "geometry": { "type": "Point", "coordinates": [ -122.67562192275049, 45.525182448494625 ] } },
{ "type": "Feature", "properties": { "rte": 35, "dir": 1, "rte_desc": "35-Macadam\/Greeley", "dir_desc": "To University of Portland", "type": "BUS", "stop_seq": 2700, "stop_id": 13185, "stop_name": "SW Macadam & Tram Tower", "jurisdic": "Portland", "zipcode": "97239", "frequent": "False" }, "geometry": { "type": "Point", "coordinates": [ -122.6727257402535, 45.499184477637513 ] } },
{ "type": "Feature", "properties": { "rte": 35, "dir": 1, "rte_desc": "35-Macadam\/Greeley", "dir_desc": "To University of Portland", "type": "BUS", "stop_seq": 350, "stop_id": 13603, "stop_name": "Willamette Dr & Webb", "jurisdic": "West Linn", "zipcode": "97068", "frequent": "False" }, "geometry": { "type": "Point", "coordinates": [ -122.6165125376461, 45.367791176104923 ] } },
{ "type": "Feature", "properties": { "rte": 35, "dir": 1, "rte_desc": "35-Macadam\/Greeley", "dir_desc": "To University of Portland", "type": "BUS", "stop_seq": 2800, "stop_id": 143, "stop_name": "SW Arthur & 1st", "jurisdic": "Portland", "zipcode": "97201", "frequent": "False" }, "geometry": { "type": "Point", "coordinates": [ -122.67845128890312, 45.503811510137524 ] } },
{ "type": "Feature", "properties": { "rte": 35, "dir": 1, "rte_desc": "35-Macadam\/Greeley", "dir_desc": "To University of Portland", "type": "BUS", "stop_seq": 2900, "stop_id": 6472, "stop_name": "2200 Block SW 1st", "jurisdic": "Portland", "zipcode": "97201", "frequent": "False" }, "geometry": { "type": "Point", "coordinates": [ -122.67853678136468, 45.5066871042944 ] } },
{ "type": "Feature", "properties": { "rte": 35, "dir": 1, "rte_desc": "35-Macadam\/Greeley", "dir_desc": "To University of Portland", "type": "BUS", "stop_seq": 3150, "stop_id": 13305, "stop_name": "SW Harrison & 6th", "jurisdic": "Portland", "zipcode": "97201", "frequent": "False" }, "geometry": { "type": "Point", "coordinates": [ -122.68264818379633, 45.511058254648027 ] } },
{ "type": "Feature", "properties": { "rte": 35, "dir": 1, "rte_desc": "35-Macadam\/Greeley", "dir_desc": "To University of Portland", "type": "BUS", "stop_seq": 3350, "stop_id": 7751, "stop_name": "SW 6th & W Burnside", "jurisdic": "Portland", "zipcode": "97204", "frequent": "False" }, "geometry": { "type": "Point", "coordinates": [ -122.67641501100556, 45.5228802354845 ] } },
{ "type": "Feature", "properties": { "rte": 35, "dir": 1, "rte_desc": "35-Macadam\/Greeley", "dir_desc": "To University of Portland", "type": "BUS", "stop_seq": 5500, "stop_id": 9635, "stop_name": "N Portsmouth & Willamette", "jurisdic": "Portland", "zipcode": "97203", "frequent": "False" }, "geometry": { "type": "Point", "coordinates": [ -122.72875963125276, 45.576353075733635 ] } }
]
}
