{
"type": "FeatureCollection",
"crs": { "type": "name", "properties": { "name": "urn:ogc:def:crs:OGC:1.3:CRS84" } },
"features": [
{ "type": "Feature", "properties": { "rte": 44, "dir": 0, "rte_desc": "44-Capitol Hwy\/Mocks Crest", "dir_desc": "To PCC Sylvania", "type": "BUS", "stop_seq": 3400, "stop_id": 9311, "stop_name": "NW Glisan & 3rd", "jurisdic": "Portland", "zipcode": "97209", "frequent": "False" }, "geometry": { "type": "Point", "coordinates": [ -122.67410562996956, 45.526816832029695 ] } },
{ "type": "Feature", "properties": { "rte": 44, "dir": 0, "rte_desc": "44-Capitol Hwy\/Mocks Crest", "dir_desc": "To PCC Sylvania", "type": "BUS", "stop_seq": 3450, "stop_id": 9301, "stop_name": "NW 5th & Davis", "jurisdic": "Portland", "zipcode": "97209", "frequent": "False" }, "geometry": { "type": "Point", "coordinates": [ -122.6755520254211, 45.524704992815863 ] } },
{ "type": "Feature", "properties": { "rte": 44, "dir": 0, "rte_desc": "44-Capitol Hwy\/Mocks Crest", "dir_desc": "To PCC Sylvania", "type": "BUS", "stop_seq": 3500, "stop_id": 7631, "stop_name": "SW 5th & Pine", "jurisdic": "Portland", "zipcode": "97204", "frequent": "False" }, "geometry": { "type": "Point", "coordinates": [ -122.6758265758323, 45.522240179891263 ] } },
{ "type": "Feature", "properties": { "rte": 44, "dir": 0, "rte_desc": "44-Capitol Hwy\/Mocks Crest", "dir_desc": "To PCC Sylvania", "type": "BUS", "stop_seq": 3550, "stop_id": 7586, "stop_name": "SW 5th & Alder", "jurisdic": "Portland", "zipcode": "97204", "frequent": "False" }, "geometry": { "type": "Point", "coordinates": [ -122.6772070403278, 45.519601923194415 ] } },
{ "type": "Feature", "properties": { "rte": 44, "dir": 0, "rte_desc": "44-Capitol Hwy\/Mocks Crest", "dir_desc": "To PCC Sylvania", "type": "BUS", "stop_seq": 3600, "stop_id": 7614, "stop_name": "SW 5th & Main", "jurisdic": "Portland", "zipcode": "97204", "frequent": "False" }, "geometry": { "type": "Point", "coordinates": [ -122.6790159382719, 45.516269401532988 ] } },
{ "type": "Feature", "properties": { "rte": 44, "dir": 0, "rte_desc": "44-Capitol Hwy\/Mocks Crest", "dir_desc": "To PCC Sylvania", "type": "BUS", "stop_seq": 3650, "stop_id": 13167, "stop_name": "SW 5th & Clay", "jurisdic": "Portland", "zipcode": "97201", "frequent": "False" }, "geometry": { "type": "Point", "coordinates": [ -122.68049937692004, 45.513597185325658 ] } },
{ "type": "Feature", "properties": { "rte": 44, "dir": 0, "rte_desc": "44-Capitol Hwy\/Mocks Crest", "dir_desc": "To PCC Sylvania", "type": "BUS", "stop_seq": 3700, "stop_id": 7602, "stop_name": "SW 5th & Harrison", "jurisdic": "Portland", "zipcode": "97201", "frequent": "False" }, "geometry": { "type": "Point", "coordinates": [ -122.68192315550095, 45.510938675136579 ] } },
{ "type": "Feature", "properties": { "rte": 44, "dir": 0, "rte_desc": "44-Capitol Hwy\/Mocks Crest", "dir_desc": "To PCC Sylvania", "type": "BUS", "stop_seq": 3750, "stop_id": 7588, "stop_name": "SW 5th & Broadway", "jurisdic": "Portland", "zipcode": "97201", "frequent": "False" }, "geometry": { "type": "Point", "coordinates": [ -122.68385035369091, 45.507083209641927 ] } },
{ "type": "Feature", "properties": { "rte": 44, "dir": 0, "rte_desc": "44-Capitol Hwy\/Mocks Crest", "dir_desc": "To PCC Sylvania", "type": "BUS", "stop_seq": 50, "stop_id": 10095, "stop_name": "Pier Park", "jurisdic": "Portland", "zipcode": "97203", "frequent": "False" }, "geometry": { "type": "Point", "coordinates": [ -122.76234383775522, 45.602113568669495 ] } },
{ "type": "Feature", "properties": { "rte": 44, "dir": 0, "rte_desc": "44-Capitol Hwy\/Mocks Crest", "dir_desc": "To PCC Sylvania", "type": "BUS", "stop_seq": 100, "stop_id": 9436, "stop_name": "10200 Block N Lombard", "jurisdic": "Portland", "zipcode": "97203", "frequent": "False" }, "geometry": { "type": "Point", "coordinates": [ -122.76263210203685, 45.600047968573456 ] } },
{ "type": "Feature", "properties": { "rte": 44, "dir": 0, "rte_desc": "44-Capitol Hwy\/Mocks Crest", "dir_desc": "To PCC Sylvania", "type": "BUS", "stop_seq": 150, "stop_id": 9575, "stop_name": "N Lombard & Reno", "jurisdic": "Portland", "zipcode": "97203", "frequent": "False" }, "geometry": { "type": "Point", "coordinates": [ -122.76145938311143, 45.598123654434566 ] } },
{ "type": "Feature", "properties": { "rte": 44, "dir": 0, "rte_desc": "44-Capitol Hwy\/Mocks Crest", "dir_desc": "To PCC Sylvania", "type": "BUS", "stop_seq": 200, "stop_id": 9435, "stop_name": "N Lombard & Catlin", "jurisdic": "Portland", "zipcode": "97203", "frequent": "False" }, "geometry": { "type": "Point", "coordinates": [ -122.75959272768357, 45.594928170365797 ] } },
{ "type": "Feature", "properties": { "rte": 44, "dir": 0, "rte_desc": "44-Capitol Hwy\/Mocks Crest", "dir_desc": "To PCC Sylvania", "type": "BUS", "stop_seq": 250, "stop_id": 9505, "stop_name": "N Lombard & New York", "jurisdic": "Portland", "zipcode": "97203", "frequent": "False" }, "geometry": { "type": "Point", "coordinates": [ -122.75714744055867, 45.592404958808949 ] } },
{ "type": "Feature", "properties": { "rte": 44, "dir": 0, "rte_desc": "44-Capitol Hwy\/Mocks Crest", "dir_desc": "To PCC Sylvania", "type": "BUS", "stop_seq": 300, "stop_id": 3456, "stop_name": "N Lombard & Baltimore", "jurisdic": "Portland", "zipcode": "97203", "frequent": "False" }, "geometry": { "type": "Point", "coordinates": [ -122.75597434812001, 45.591183574774028 ] } },
{ "type": "Feature", "properties": { "rte": 44, "dir": 0, "rte_desc": "44-Capitol Hwy\/Mocks Crest", "dir_desc": "To PCC Sylvania", "type": "BUS", "stop_seq": 350, "stop_id": 3465, "stop_name": "N Lombard & Burlington", "jurisdic": "Portland", "zipcode": "97203", "frequent": "False" }, "geometry": { "type": "Point", "coordinates": [ -122.75473974178398, 45.590112547864109 ] } },
{ "type": "Feature", "properties": { "rte": 44, "dir": 0, "rte_desc": "44-Capitol Hwy\/Mocks Crest", "dir_desc": "To PCC Sylvania", "type": "BUS", "stop_seq": 400, "stop_id": 3508, "stop_name": "N Lombard & John", "jurisdic": "Portland", "zipcode": "97203", "frequent": "False" }, "geometry": { "type": "Point", "coordinates": [ -122.75306525555226, 45.589590375713804 ] } },
{ "type": "Feature", "properties": { "rte": 44, "dir": 0, "rte_desc": "44-Capitol Hwy\/Mocks Crest", "dir_desc": "To PCC Sylvania", "type": "BUS", "stop_seq": 450, "stop_id": 3474, "stop_name": "N Lombard & Charleston", "jurisdic": "Portland", "zipcode": "97203", "frequent": "False" }, "geometry": { "type": "Point", "coordinates": [ -122.75171778616856, 45.589156458802819 ] } },
{ "type": "Feature", "properties": { "rte": 44, "dir": 0, "rte_desc": "44-Capitol Hwy\/Mocks Crest", "dir_desc": "To PCC Sylvania", "type": "BUS", "stop_seq": 500, "stop_id": 13212, "stop_name": "N Richmond & Syracuse", "jurisdic": "Portland", "zipcode": "97203", "frequent": "False" }, "geometry": { "type": "Point", "coordinates": [ -122.75217181623184, 45.587450774417292 ] } },
{ "type": "Feature", "properties": { "rte": 44, "dir": 0, "rte_desc": "44-Capitol Hwy\/Mocks Crest", "dir_desc": "To PCC Sylvania", "type": "BUS", "stop_seq": 550, "stop_id": 6279, "stop_name": "N Willamette & Mohawk", "jurisdic": "Portland", "zipcode": "97203", "frequent": "False" }, "geometry": { "type": "Point", "coordinates": [ -122.75099992062017, 45.585809750755502 ] } },
{ "type": "Feature", "properties": { "rte": 44, "dir": 0, "rte_desc": "44-Capitol Hwy\/Mocks Crest", "dir_desc": "To PCC Sylvania", "type": "BUS", "stop_seq": 600, "stop_id": 6289, "stop_name": "N Willamette & Tyler", "jurisdic": "Portland", "zipcode": "97203", "frequent": "False" }, "geometry": { "type": "Point", "coordinates": [ -122.74865180030427, 45.585045956852277 ] } },
{ "type": "Feature", "properties": { "rte": 44, "dir": 0, "rte_desc": "44-Capitol Hwy\/Mocks Crest", "dir_desc": "To PCC Sylvania", "type": "BUS", "stop_seq": 650, "stop_id": 6262, "stop_name": "N Willamette & Edgewater", "jurisdic": "Portland", "zipcode": "97203", "frequent": "False" }, "geometry": { "type": "Point", "coordinates": [ -122.74618380392839, 45.58423664110925 ] } },
{ "type": "Feature", "properties": { "rte": 44, "dir": 0, "rte_desc": "44-Capitol Hwy\/Mocks Crest", "dir_desc": "To PCC Sylvania", "type": "BUS", "stop_seq": 700, "stop_id": 10975, "stop_name": "N Willamette & Burr", "jurisdic": "Portland", "zipcode": "97203", "frequent": "False" }, "geometry": { "type": "Point", "coordinates": [ -122.74404230240775, 45.583222212240152 ] } },
{ "type": "Feature", "properties": { "rte": 44, "dir": 0, "rte_desc": "44-Capitol Hwy\/Mocks Crest", "dir_desc": "To PCC Sylvania", "type": "BUS", "stop_seq": 750, "stop_id": 6259, "stop_name": "N Willamette & Ida", "jurisdic": "Portland", "zipcode": "97203", "frequent": "False" }, "geometry": { "type": "Point", "coordinates": [ -122.74228028739124, 45.582300443962787 ] } },
{ "type": "Feature", "properties": { "rte": 44, "dir": 0, "rte_desc": "44-Capitol Hwy\/Mocks Crest", "dir_desc": "To PCC Sylvania", "type": "BUS", "stop_seq": 800, "stop_id": 6265, "stop_name": "N Willamette & Carey", "jurisdic": "Portland", "zipcode": "97203", "frequent": "False" }, "geometry": { "type": "Point", "coordinates": [ -122.73964902789594, 45.581304158929704 ] } },
{ "type": "Feature", "properties": { "rte": 44, "dir": 0, "rte_desc": "44-Capitol Hwy\/Mocks Crest", "dir_desc": "To PCC Sylvania", "type": "BUS", "stop_seq": 850, "stop_id": 6274, "stop_name": "N Willamette & Macrum", "jurisdic": "Portland", "zipcode": "97203", "frequent": "False" }, "geometry": { "type": "Point", "coordinates": [ -122.73736689625463, 45.580008707109215 ] } },
{ "type": "Feature", "properties": { "rte": 44, "dir": 0, "rte_desc": "44-Capitol Hwy\/Mocks Crest", "dir_desc": "To PCC Sylvania", "type": "BUS", "stop_seq": 900, "stop_id": 6293, "stop_name": "N Willamette & Wall", "jurisdic": "Portland", "zipcode": "97203", "frequent": "False" }, "geometry": { "type": "Point", "coordinates": [ -122.73440239590565, 45.578472012329179 ] } },
{ "type": "Feature", "properties": { "rte": 44, "dir": 0, "rte_desc": "44-Capitol Hwy\/Mocks Crest", "dir_desc": "To PCC Sylvania", "type": "BUS", "stop_seq": 1000, "stop_id": 6291, "stop_name": "N Willamette & Van Houten", "jurisdic": "Portland", "zipcode": "97203", "frequent": "False" }, "geometry": { "type": "Point", "coordinates": [ -122.7306115104037, 45.5766220698777 ] } },
{ "type": "Feature", "properties": { "rte": 44, "dir": 0, "rte_desc": "44-Capitol Hwy\/Mocks Crest", "dir_desc": "To PCC Sylvania", "type": "BUS", "stop_seq": 1050, "stop_id": 6285, "stop_name": "N Willamette & Portsmouth", "jurisdic": "Portland", "zipcode": "97203", "frequent": "False" }, "geometry": { "type": "Point", "coordinates": [ -122.72831107356632, 45.575783746973592 ] } },
{ "type": "Feature", "properties": { "rte": 44, "dir": 0, "rte_desc": "44-Capitol Hwy\/Mocks Crest", "dir_desc": "To PCC Sylvania", "type": "BUS", "stop_seq": 1150, "stop_id": 6290, "stop_name": "N Willamette & University of Portland", "jurisdic": "Portland", "zipcode": "97203", "frequent": "False" }, "geometry": { "type": "Point", "coordinates": [ -122.72390638927287, 45.574118173745411 ] } },
{ "type": "Feature", "properties": { "rte": 44, "dir": 0, "rte_desc": "44-Capitol Hwy\/Mocks Crest", "dir_desc": "To PCC Sylvania", "type": "BUS", "stop_seq": 1250, "stop_id": 6278, "stop_name": "N Willamette & Menlo", "jurisdic": "Portland", "zipcode": "97203", "frequent": "False" }, "geometry": { "type": "Point", "coordinates": [ -122.71860034832578, 45.57444391765118 ] } },
{ "type": "Feature", "properties": { "rte": 44, "dir": 0, "rte_desc": "44-Capitol Hwy\/Mocks Crest", "dir_desc": "To PCC Sylvania", "type": "BUS", "stop_seq": 1300, "stop_id": 6299, "stop_name": "N Willamette & Woolsey", "jurisdic": "Portland", "zipcode": "97203", "frequent": "False" }, "geometry": { "type": "Point", "coordinates": [ -122.71320097900886, 45.575231856946694 ] } },
{ "type": "Feature", "properties": { "rte": 44, "dir": 0, "rte_desc": "44-Capitol Hwy\/Mocks Crest", "dir_desc": "To PCC Sylvania", "type": "BUS", "stop_seq": 1350, "stop_id": 6266, "stop_name": "N Willamette & Chautauqua", "jurisdic": "Portland", "zipcode": "97217", "frequent": "False" }, "geometry": { "type": "Point", "coordinates": [ -122.70816925585613, 45.574923243232142 ] } },
{ "type": "Feature", "properties": { "rte": 44, "dir": 0, "rte_desc": "44-Capitol Hwy\/Mocks Crest", "dir_desc": "To PCC Sylvania", "type": "BUS", "stop_seq": 1450, "stop_id": 6286, "stop_name": "N Willamette & Saratoga", "jurisdic": "Portland", "zipcode": "97217", "frequent": "False" }, "geometry": { "type": "Point", "coordinates": [ -122.70201683368633, 45.572516384728942 ] } },
{ "type": "Feature", "properties": { "rte": 44, "dir": 0, "rte_desc": "44-Capitol Hwy\/Mocks Crest", "dir_desc": "To PCC Sylvania", "type": "BUS", "stop_seq": 1500, "stop_id": 4461, "stop_name": "N Rosa Parks Way & Curtis", "jurisdic": "Portland", "zipcode": "97217", "frequent": "False" }, "geometry": { "type": "Point", "coordinates": [ -122.69872166230678, 45.569850083671916 ] } },
{ "type": "Feature", "properties": { "rte": 44, "dir": 0, "rte_desc": "44-Capitol Hwy\/Mocks Crest", "dir_desc": "To PCC Sylvania", "type": "BUS", "stop_seq": 1550, "stop_id": 4470, "stop_name": "N Rosa Parks Way & Greeley", "jurisdic": "Portland", "zipcode": "97217", "frequent": "False" }, "geometry": { "type": "Point", "coordinates": [ -122.69521303703672, 45.569856704343266 ] } },
{ "type": "Feature", "properties": { "rte": 44, "dir": 0, "rte_desc": "44-Capitol Hwy\/Mocks Crest", "dir_desc": "To PCC Sylvania", "type": "BUS", "stop_seq": 1600, "stop_id": 4457, "stop_name": "N Rosa Parks Way & Boston", "jurisdic": "Portland", "zipcode": "97217", "frequent": "False" }, "geometry": { "type": "Point", "coordinates": [ -122.69162599496153, 45.569829721995866 ] } },
{ "type": "Feature", "properties": { "rte": 44, "dir": 0, "rte_desc": "44-Capitol Hwy\/Mocks Crest", "dir_desc": "To PCC Sylvania", "type": "BUS", "stop_seq": 1700, "stop_id": 4466, "stop_name": "N Rosa Parks Way & Denver", "jurisdic": "Portland", "zipcode": "97217", "frequent": "False" }, "geometry": { "type": "Point", "coordinates": [ -122.687777865, 45.569820348182759 ] } },
{ "type": "Feature", "properties": { "rte": 44, "dir": 0, "rte_desc": "44-Capitol Hwy\/Mocks Crest", "dir_desc": "To PCC Sylvania", "type": "BUS", "stop_seq": 1800, "stop_id": 4474, "stop_name": "N Rosa Parks Way & Interstate", "jurisdic": "Portland", "zipcode": "97217", "frequent": "False" }, "geometry": { "type": "Point", "coordinates": [ -122.68171413580204, 45.569784814057272 ] } },
{ "type": "Feature", "properties": { "rte": 44, "dir": 0, "rte_desc": "44-Capitol Hwy\/Mocks Crest", "dir_desc": "To PCC Sylvania", "type": "BUS", "stop_seq": 1900, "stop_id": 4455, "stop_name": "N Rosa Parks Way & Albina", "jurisdic": "Portland", "zipcode": "97217", "frequent": "False" }, "geometry": { "type": "Point", "coordinates": [ -122.67505430402318, 45.569834879472928 ] } },
{ "type": "Feature", "properties": { "rte": 44, "dir": 0, "rte_desc": "44-Capitol Hwy\/Mocks Crest", "dir_desc": "To PCC Sylvania", "type": "BUS", "stop_seq": 1950, "stop_id": 4459, "stop_name": "N Rosa Parks Way & Congress", "jurisdic": "Portland", "zipcode": "97217", "frequent": "False" }, "geometry": { "type": "Point", "coordinates": [ -122.67181954422281, 45.569847786703747 ] } },
{ "type": "Feature", "properties": { "rte": 44, "dir": 0, "rte_desc": "44-Capitol Hwy\/Mocks Crest", "dir_desc": "To PCC Sylvania", "type": "BUS", "stop_seq": 2000, "stop_id": 4486, "stop_name": "N Rosa Parks Way & Vancouver", "jurisdic": "Portland", "zipcode": "97217", "frequent": "False" }, "geometry": { "type": "Point", "coordinates": [ -122.66912910219783, 45.569888182415667 ] } },
{ "type": "Feature", "properties": { "rte": 44, "dir": 0, "rte_desc": "44-Capitol Hwy\/Mocks Crest", "dir_desc": "To PCC Sylvania", "type": "BUS", "stop_seq": 2050, "stop_id": 5992, "stop_name": "N Vancouver & Holman", "jurisdic": "Portland", "zipcode": "97217", "frequent": "False" }, "geometry": { "type": "Point", "coordinates": [ -122.66893025417252, 45.567813718642768 ] } },
{ "type": "Feature", "properties": { "rte": 44, "dir": 0, "rte_desc": "44-Capitol Hwy\/Mocks Crest", "dir_desc": "To PCC Sylvania", "type": "BUS", "stop_seq": 2100, "stop_id": 5977, "stop_name": "N Vancouver & Ainsworth", "jurisdic": "Portland", "zipcode": "97217", "frequent": "False" }, "geometry": { "type": "Point", "coordinates": [ -122.66890392592266, 45.566618912791668 ] } },
{ "type": "Feature", "properties": { "rte": 44, "dir": 0, "rte_desc": "44-Capitol Hwy\/Mocks Crest", "dir_desc": "To PCC Sylvania", "type": "BUS", "stop_seq": 2150, "stop_id": 5995, "stop_name": "N Vancouver & Jessup", "jurisdic": "Portland", "zipcode": "97217", "frequent": "False" }, "geometry": { "type": "Point", "coordinates": [ -122.66885826675583, 45.564231985238294 ] } },
{ "type": "Feature", "properties": { "rte": 44, "dir": 0, "rte_desc": "44-Capitol Hwy\/Mocks Crest", "dir_desc": "To PCC Sylvania", "type": "BUS", "stop_seq": 2200, "stop_id": 5996, "stop_name": "N Vancouver & Killingsworth", "jurisdic": "Portland", "zipcode": "97217", "frequent": "False" }, "geometry": { "type": "Point", "coordinates": [ -122.66879464874086, 45.562497339277272 ] } },
{ "type": "Feature", "properties": { "rte": 44, "dir": 0, "rte_desc": "44-Capitol Hwy\/Mocks Crest", "dir_desc": "To PCC Sylvania", "type": "BUS", "stop_seq": 2250, "stop_id": 5978, "stop_name": "N Vancouver & Alberta", "jurisdic": "Portland", "zipcode": "97217", "frequent": "False" }, "geometry": { "type": "Point", "coordinates": [ -122.66833452655227, 45.559177128827734 ] } },
{ "type": "Feature", "properties": { "rte": 44, "dir": 0, "rte_desc": "44-Capitol Hwy\/Mocks Crest", "dir_desc": "To PCC Sylvania", "type": "BUS", "stop_seq": 2300, "stop_id": 6010, "stop_name": "N Vancouver & Wygant", "jurisdic": "Portland", "zipcode": "97217", "frequent": "False" }, "geometry": { "type": "Point", "coordinates": [ -122.6682433385489, 45.557613872146241 ] } },
{ "type": "Feature", "properties": { "rte": 44, "dir": 0, "rte_desc": "44-Capitol Hwy\/Mocks Crest", "dir_desc": "To PCC Sylvania", "type": "BUS", "stop_seq": 2400, "stop_id": 6005, "stop_name": "N Vancouver & Skidmore", "jurisdic": "Portland", "zipcode": "97217", "frequent": "False" }, "geometry": { "type": "Point", "coordinates": [ -122.66807640796257, 45.554794314301674 ] } },
{ "type": "Feature", "properties": { "rte": 44, "dir": 0, "rte_desc": "44-Capitol Hwy\/Mocks Crest", "dir_desc": "To PCC Sylvania", "type": "BUS", "stop_seq": 2500, "stop_id": 6004, "stop_name": "N Vancouver & Shaver", "jurisdic": "Portland", "zipcode": "97227", "frequent": "False" }, "geometry": { "type": "Point", "coordinates": [ -122.66803553992446, 45.552156787317436 ] } },
{ "type": "Feature", "properties": { "rte": 44, "dir": 0, "rte_desc": "44-Capitol Hwy\/Mocks Crest", "dir_desc": "To PCC Sylvania", "type": "BUS", "stop_seq": 2600, "stop_id": 5979, "stop_name": "N Vancouver & Beech", "jurisdic": "Portland", "zipcode": "97227", "frequent": "False" }, "geometry": { "type": "Point", "coordinates": [ -122.66801919684303, 45.54961319896028 ] } },
{ "type": "Feature", "properties": { "rte": 44, "dir": 0, "rte_desc": "44-Capitol Hwy\/Mocks Crest", "dir_desc": "To PCC Sylvania", "type": "BUS", "stop_seq": 2650, "stop_id": 6000, "stop_name": "N Vancouver & Ivy", "jurisdic": "Portland", "zipcode": "97227", "frequent": "False" }, "geometry": { "type": "Point", "coordinates": [ -122.66804924187795, 45.547595595409135 ] } },
{ "type": "Feature", "properties": { "rte": 44, "dir": 0, "rte_desc": "44-Capitol Hwy\/Mocks Crest", "dir_desc": "To PCC Sylvania", "type": "BUS", "stop_seq": 2700, "stop_id": 5984, "stop_name": "N Vancouver & Fargo", "jurisdic": "Portland", "zipcode": "97227", "frequent": "False" }, "geometry": { "type": "Point", "coordinates": [ -122.66804179659557, 45.545975176405648 ] } },
{ "type": "Feature", "properties": { "rte": 44, "dir": 0, "rte_desc": "44-Capitol Hwy\/Mocks Crest", "dir_desc": "To PCC Sylvania", "type": "BUS", "stop_seq": 2750, "stop_id": 6006, "stop_name": "N Vancouver & Stanton", "jurisdic": "Portland", "zipcode": "97227", "frequent": "False" }, "geometry": { "type": "Point", "coordinates": [ -122.66824623451846, 45.543883348125107 ] } },
{ "type": "Feature", "properties": { "rte": 44, "dir": 0, "rte_desc": "44-Capitol Hwy\/Mocks Crest", "dir_desc": "To PCC Sylvania", "type": "BUS", "stop_seq": 2800, "stop_id": 5997, "stop_name": "N Vancouver & Knott", "jurisdic": "Portland", "zipcode": "97227", "frequent": "False" }, "geometry": { "type": "Point", "coordinates": [ -122.66824900361371, 45.542031741739315 ] } },
{ "type": "Feature", "properties": { "rte": 44, "dir": 0, "rte_desc": "44-Capitol Hwy\/Mocks Crest", "dir_desc": "To PCC Sylvania", "type": "BUS", "stop_seq": 2850, "stop_id": 6003, "stop_name": "N Vancouver & Russell", "jurisdic": "Portland", "zipcode": "97227", "frequent": "False" }, "geometry": { "type": "Point", "coordinates": [ -122.66786328190751, 45.540714382072089 ] } },
{ "type": "Feature", "properties": { "rte": 44, "dir": 0, "rte_desc": "44-Capitol Hwy\/Mocks Crest", "dir_desc": "To PCC Sylvania", "type": "BUS", "stop_seq": 2900, "stop_id": 6001, "stop_name": "N Vancouver & Page", "jurisdic": "Portland", "zipcode": "97227", "frequent": "False" }, "geometry": { "type": "Point", "coordinates": [ -122.66779080587624, 45.539666381740538 ] } },
{ "type": "Feature", "properties": { "rte": 44, "dir": 0, "rte_desc": "44-Capitol Hwy\/Mocks Crest", "dir_desc": "To PCC Sylvania", "type": "BUS", "stop_seq": 2950, "stop_id": 6008, "stop_name": "N Vancouver & Tillamook", "jurisdic": "Portland", "zipcode": "97227", "frequent": "False" }, "geometry": { "type": "Point", "coordinates": [ -122.66779156839613, 45.538120790747485 ] } },
{ "type": "Feature", "properties": { "rte": 44, "dir": 0, "rte_desc": "44-Capitol Hwy\/Mocks Crest", "dir_desc": "To PCC Sylvania", "type": "BUS", "stop_seq": 3000, "stop_id": 6009, "stop_name": "N Vancouver & Weidler", "jurisdic": "Portland", "zipcode": "97227", "frequent": "False" }, "geometry": { "type": "Point", "coordinates": [ -122.66784119230469, 45.534499625504658 ] } },
{ "type": "Feature", "properties": { "rte": 44, "dir": 0, "rte_desc": "44-Capitol Hwy\/Mocks Crest", "dir_desc": "To PCC Sylvania", "type": "BUS", "stop_seq": 3050, "stop_id": 2592, "stop_name": "Rose Quarter Transit Center", "jurisdic": "Portland", "zipcode": "97232", "frequent": "False" }, "geometry": { "type": "Point", "coordinates": [ -122.66647593582103, 45.530005376981457 ] } },
{ "type": "Feature", "properties": { "rte": 44, "dir": 0, "rte_desc": "44-Capitol Hwy\/Mocks Crest", "dir_desc": "To PCC Sylvania", "type": "BUS", "stop_seq": 3800, "stop_id": 7591, "stop_name": "SW 5th & Caruthers", "jurisdic": "Portland", "zipcode": "97201", "frequent": "False" }, "geometry": { "type": "Point", "coordinates": [ -122.68328988914021, 45.505565893595595 ] } },
{ "type": "Feature", "properties": { "rte": 44, "dir": 0, "rte_desc": "44-Capitol Hwy\/Mocks Crest", "dir_desc": "To PCC Sylvania", "type": "BUS", "stop_seq": 3850, "stop_id": 175, "stop_name": "SW Barbur & Hooker", "jurisdic": "Portland", "zipcode": "97201", "frequent": "False" }, "geometry": { "type": "Point", "coordinates": [ -122.68211456047723, 45.502686453303632 ] } },
{ "type": "Feature", "properties": { "rte": 44, "dir": 0, "rte_desc": "44-Capitol Hwy\/Mocks Crest", "dir_desc": "To PCC Sylvania", "type": "BUS", "stop_seq": 3900, "stop_id": 198, "stop_name": "SW Barbur & Woods", "jurisdic": "Portland", "zipcode": "97201", "frequent": "False" }, "geometry": { "type": "Point", "coordinates": [ -122.68114846394521, 45.500984874845315 ] } },
{ "type": "Feature", "properties": { "rte": 44, "dir": 0, "rte_desc": "44-Capitol Hwy\/Mocks Crest", "dir_desc": "To PCC Sylvania", "type": "BUS", "stop_seq": 3950, "stop_id": 196, "stop_name": "SW Barbur & Whitaker", "jurisdic": "Portland", "zipcode": "97239", "frequent": "False" }, "geometry": { "type": "Point", "coordinates": [ -122.6798121648597, 45.498601556240132 ] } },
{ "type": "Feature", "properties": { "rte": 44, "dir": 0, "rte_desc": "44-Capitol Hwy\/Mocks Crest", "dir_desc": "To PCC Sylvania", "type": "BUS", "stop_seq": 4000, "stop_id": 185, "stop_name": "SW Barbur & Pennoyer", "jurisdic": "Portland", "zipcode": "97239", "frequent": "False" }, "geometry": { "type": "Point", "coordinates": [ -122.67911949604606, 45.497347730332827 ] } },
{ "type": "Feature", "properties": { "rte": 44, "dir": 0, "rte_desc": "44-Capitol Hwy\/Mocks Crest", "dir_desc": "To PCC Sylvania", "type": "BUS", "stop_seq": 4050, "stop_id": 176, "stop_name": "SW Barbur & Lane", "jurisdic": "Portland", "zipcode": "97239", "frequent": "False" }, "geometry": { "type": "Point", "coordinates": [ -122.67836731311236, 45.495994401122672 ] } },
{ "type": "Feature", "properties": { "rte": 44, "dir": 0, "rte_desc": "44-Capitol Hwy\/Mocks Crest", "dir_desc": "To PCC Sylvania", "type": "BUS", "stop_seq": 4100, "stop_id": 173, "stop_name": "SW Barbur & Hamilton", "jurisdic": "Portland", "zipcode": "97239", "frequent": "False" }, "geometry": { "type": "Point", "coordinates": [ -122.67856572713241, 45.491037216311149 ] } },
{ "type": "Feature", "properties": { "rte": 44, "dir": 0, "rte_desc": "44-Capitol Hwy\/Mocks Crest", "dir_desc": "To PCC Sylvania", "type": "BUS", "stop_seq": 4150, "stop_id": 155, "stop_name": "4900 Block SW Barbur", "jurisdic": "Portland", "zipcode": "97239", "frequent": "False" }, "geometry": { "type": "Point", "coordinates": [ -122.68275676679825, 45.487059214323075 ] } },
{ "type": "Feature", "properties": { "rte": 44, "dir": 0, "rte_desc": "44-Capitol Hwy\/Mocks Crest", "dir_desc": "To PCC Sylvania", "type": "BUS", "stop_seq": 4200, "stop_id": 957, "stop_name": "SW Capitol & Terwilliger", "jurisdic": "Portland", "zipcode": "97239", "frequent": "False" }, "geometry": { "type": "Point", "coordinates": [ -122.68733659927162, 45.480276157838624 ] } },
{ "type": "Feature", "properties": { "rte": 44, "dir": 0, "rte_desc": "44-Capitol Hwy\/Mocks Crest", "dir_desc": "To PCC Sylvania", "type": "BUS", "stop_seq": 4250, "stop_id": 955, "stop_name": "SW Capitol & Sunset", "jurisdic": "Portland", "zipcode": "97239", "frequent": "False" }, "geometry": { "type": "Point", "coordinates": [ -122.69321930207245, 45.478896111218731 ] } },
{ "type": "Feature", "properties": { "rte": 44, "dir": 0, "rte_desc": "44-Capitol Hwy\/Mocks Crest", "dir_desc": "To PCC Sylvania", "type": "BUS", "stop_seq": 4300, "stop_id": 964, "stop_name": "SW Capitol & Nebraska", "jurisdic": "Portland", "zipcode": "97239", "frequent": "False" }, "geometry": { "type": "Point", "coordinates": [ -122.69961991802455, 45.477705862514114 ] } },
{ "type": "Feature", "properties": { "rte": 44, "dir": 0, "rte_desc": "44-Capitol Hwy\/Mocks Crest", "dir_desc": "To PCC Sylvania", "type": "BUS", "stop_seq": 4350, "stop_id": 943, "stop_name": "SW Capitol & Idaho", "jurisdic": "Portland", "zipcode": "97239", "frequent": "False" }, "geometry": { "type": "Point", "coordinates": [ -122.70172559662363, 45.47674647424671 ] } },
{ "type": "Feature", "properties": { "rte": 44, "dir": 0, "rte_desc": "44-Capitol Hwy\/Mocks Crest", "dir_desc": "To PCC Sylvania", "type": "BUS", "stop_seq": 4400, "stop_id": 966, "stop_name": "SW Capitol & 26th", "jurisdic": "Portland", "zipcode": "97219", "frequent": "False" }, "geometry": { "type": "Point", "coordinates": [ -122.70418812266033, 45.476127146120625 ] } },
{ "type": "Feature", "properties": { "rte": 44, "dir": 0, "rte_desc": "44-Capitol Hwy\/Mocks Crest", "dir_desc": "To PCC Sylvania", "type": "BUS", "stop_seq": 4450, "stop_id": 935, "stop_name": "SW Capitol & Florida", "jurisdic": "Portland", "zipcode": "97219", "frequent": "False" }, "geometry": { "type": "Point", "coordinates": [ -122.70778810588395, 45.474698907862752 ] } },
{ "type": "Feature", "properties": { "rte": 44, "dir": 0, "rte_desc": "44-Capitol Hwy\/Mocks Crest", "dir_desc": "To PCC Sylvania", "type": "BUS", "stop_seq": 4500, "stop_id": 958, "stop_name": "SW Capitol & Texas", "jurisdic": "Portland", "zipcode": "97219", "frequent": "False" }, "geometry": { "type": "Point", "coordinates": [ -122.70779171927985, 45.473595907160316 ] } },
{ "type": "Feature", "properties": { "rte": 44, "dir": 0, "rte_desc": "44-Capitol Hwy\/Mocks Crest", "dir_desc": "To PCC Sylvania", "type": "BUS", "stop_seq": 4550, "stop_id": 949, "stop_name": "SW Capitol & Miles", "jurisdic": "Portland", "zipcode": "97219", "frequent": "False" }, "geometry": { "type": "Point", "coordinates": [ -122.70775410657548, 45.470964347173982 ] } },
{ "type": "Feature", "properties": { "rte": 44, "dir": 0, "rte_desc": "44-Capitol Hwy\/Mocks Crest", "dir_desc": "To PCC Sylvania", "type": "BUS", "stop_seq": 4650, "stop_id": 970, "stop_name": "SW Capitol & 33rd", "jurisdic": "Portland", "zipcode": "97219", "frequent": "False" }, "geometry": { "type": "Point", "coordinates": [ -122.71053022098035, 45.468608010790547 ] } },
{ "type": "Feature", "properties": { "rte": 44, "dir": 0, "rte_desc": "44-Capitol Hwy\/Mocks Crest", "dir_desc": "To PCC Sylvania", "type": "BUS", "stop_seq": 4700, "stop_id": 5878, "stop_name": "SW Troy & 35th", "jurisdic": "Portland", "zipcode": "97219", "frequent": "False" }, "geometry": { "type": "Point", "coordinates": [ -122.71343391882137, 45.468290056105161 ] } },
{ "type": "Feature", "properties": { "rte": 44, "dir": 0, "rte_desc": "44-Capitol Hwy\/Mocks Crest", "dir_desc": "To PCC Sylvania", "type": "BUS", "stop_seq": 4750, "stop_id": 10865, "stop_name": "SW 36th & Capitol Hwy", "jurisdic": "Portland", "zipcode": "97219", "frequent": "False" }, "geometry": { "type": "Point", "coordinates": [ -122.71418671701639, 45.467828537144065 ] } },
{ "type": "Feature", "properties": { "rte": 44, "dir": 0, "rte_desc": "44-Capitol Hwy\/Mocks Crest", "dir_desc": "To PCC Sylvania", "type": "BUS", "stop_seq": 4800, "stop_id": 10933, "stop_name": "SW Capitol & Garden Home", "jurisdic": "Portland", "zipcode": "97219", "frequent": "False" }, "geometry": { "type": "Point", "coordinates": [ -122.71669841345002, 45.466659424652406 ] } },
{ "type": "Feature", "properties": { "rte": 44, "dir": 0, "rte_desc": "44-Capitol Hwy\/Mocks Crest", "dir_desc": "To PCC Sylvania", "type": "BUS", "stop_seq": 4850, "stop_id": 10932, "stop_name": "SW Capitol & 40th", "jurisdic": "Portland", "zipcode": "97219", "frequent": "False" }, "geometry": { "type": "Point", "coordinates": [ -122.71784690905835, 45.465403628456961 ] } },
{ "type": "Feature", "properties": { "rte": 44, "dir": 0, "rte_desc": "44-Capitol Hwy\/Mocks Crest", "dir_desc": "To PCC Sylvania", "type": "BUS", "stop_seq": 4900, "stop_id": 927, "stop_name": "SW Capitol & Carson", "jurisdic": "Portland", "zipcode": "97219", "frequent": "False" }, "geometry": { "type": "Point", "coordinates": [ -122.71807119382122, 45.464230028027551 ] } },
{ "type": "Feature", "properties": { "rte": 44, "dir": 0, "rte_desc": "44-Capitol Hwy\/Mocks Crest", "dir_desc": "To PCC Sylvania", "type": "BUS", "stop_seq": 4950, "stop_id": 933, "stop_name": "SW Capitol & Dolph", "jurisdic": "Portland", "zipcode": "97219", "frequent": "False" }, "geometry": { "type": "Point", "coordinates": [ -122.71918699566672, 45.461861746166655 ] } },
{ "type": "Feature", "properties": { "rte": 44, "dir": 0, "rte_desc": "44-Capitol Hwy\/Mocks Crest", "dir_desc": "To PCC Sylvania", "type": "BUS", "stop_seq": 5000, "stop_id": 947, "stop_name": "SW Capitol & Marigold", "jurisdic": "Portland", "zipcode": "97219", "frequent": "False" }, "geometry": { "type": "Point", "coordinates": [ -122.71924245383185, 45.460392238695022 ] } },
{ "type": "Feature", "properties": { "rte": 44, "dir": 0, "rte_desc": "44-Capitol Hwy\/Mocks Crest", "dir_desc": "To PCC Sylvania", "type": "BUS", "stop_seq": 5100, "stop_id": 921, "stop_name": "SW Capitol & Alice", "jurisdic": "Portland", "zipcode": "97219", "frequent": "False" }, "geometry": { "type": "Point", "coordinates": [ -122.71909015411262, 45.458357734685649 ] } },
{ "type": "Feature", "properties": { "rte": 44, "dir": 0, "rte_desc": "44-Capitol Hwy\/Mocks Crest", "dir_desc": "To PCC Sylvania", "type": "BUS", "stop_seq": 5150, "stop_id": 926, "stop_name": "9500 Block SW Capitol", "jurisdic": "Portland", "zipcode": "97219", "frequent": "False" }, "geometry": { "type": "Point", "coordinates": [ -122.71907490909533, 45.456580878860343 ] } },
{ "type": "Feature", "properties": { "rte": 44, "dir": 0, "rte_desc": "44-Capitol Hwy\/Mocks Crest", "dir_desc": "To PCC Sylvania", "type": "BUS", "stop_seq": 5200, "stop_id": 930, "stop_name": "SW Capitol & Taylors Ferry", "jurisdic": "Portland", "zipcode": "97219", "frequent": "False" }, "geometry": { "type": "Point", "coordinates": [ -122.72045578720638, 45.454761941046378 ] } },
{ "type": "Feature", "properties": { "rte": 44, "dir": 0, "rte_desc": "44-Capitol Hwy\/Mocks Crest", "dir_desc": "To PCC Sylvania", "type": "BUS", "stop_seq": 5250, "stop_id": 10952, "stop_name": "SW Capitol & Huber", "jurisdic": "Portland", "zipcode": "97219", "frequent": "False" }, "geometry": { "type": "Point", "coordinates": [ -122.72166504602116, 45.452932145369928 ] } },
{ "type": "Feature", "properties": { "rte": 44, "dir": 0, "rte_desc": "44-Capitol Hwy\/Mocks Crest", "dir_desc": "To PCC Sylvania", "type": "BUS", "stop_seq": 5300, "stop_id": 936, "stop_name": "SW Capitol & Galeburn", "jurisdic": "Portland", "zipcode": "97219", "frequent": "False" }, "geometry": { "type": "Point", "coordinates": [ -122.72424099007412, 45.449472108860782 ] } },
{ "type": "Feature", "properties": { "rte": 44, "dir": 0, "rte_desc": "44-Capitol Hwy\/Mocks Crest", "dir_desc": "To PCC Sylvania", "type": "BUS", "stop_seq": 5350, "stop_id": 931, "stop_name": "SW Capitol & Dickinson", "jurisdic": "Portland", "zipcode": "97219", "frequent": "False" }, "geometry": { "type": "Point", "coordinates": [ -122.72555491534834, 45.44726347403094 ] } },
{ "type": "Feature", "properties": { "rte": 44, "dir": 0, "rte_desc": "44-Capitol Hwy\/Mocks Crest", "dir_desc": "To PCC Sylvania", "type": "BUS", "stop_seq": 5400, "stop_id": 951, "stop_name": "SW Capitol & Pomona", "jurisdic": "Portland", "zipcode": "97219", "frequent": "False" }, "geometry": { "type": "Point", "coordinates": [ -122.72694494397204, 45.445160280918039 ] } },
{ "type": "Feature", "properties": { "rte": 44, "dir": 0, "rte_desc": "44-Capitol Hwy\/Mocks Crest", "dir_desc": "To PCC Sylvania", "type": "BUS", "stop_seq": 5500, "stop_id": 7577, "stop_name": "SW 49th & Coronado", "jurisdic": "Portland", "zipcode": "97219", "frequent": "False" }, "geometry": { "type": "Point", "coordinates": [ -122.72719485396033, 45.44259818008225 ] } },
{ "type": "Feature", "properties": { "rte": 44, "dir": 0, "rte_desc": "44-Capitol Hwy\/Mocks Crest", "dir_desc": "To PCC Sylvania", "type": "BUS", "stop_seq": 5550, "stop_id": 8951, "stop_name": "SW 49th & PCC Entrance", "jurisdic": "Portland", "zipcode": "97219", "frequent": "False" }, "geometry": { "type": "Point", "coordinates": [ -122.72726144924748, 45.439912309998775 ] } },
{ "type": "Feature", "properties": { "rte": 44, "dir": 0, "rte_desc": "44-Capitol Hwy\/Mocks Crest", "dir_desc": "To PCC Sylvania", "type": "BUS", "stop_seq": 1200, "stop_id": 6270, "stop_name": "N Willamette & Harvard", "jurisdic": "Portland", "zipcode": "97203", "frequent": "False" }, "geometry": { "type": "Point", "coordinates": [ -122.72010679918559, 45.5739239687964 ] } },
{ "type": "Feature", "properties": { "rte": 44, "dir": 0, "rte_desc": "44-Capitol Hwy\/Mocks Crest", "dir_desc": "To PCC Sylvania", "type": "BUS", "stop_seq": 5600, "stop_id": 4431, "stop_name": "PCC Sylvania Main Stop", "jurisdic": "Portland", "zipcode": "97219", "frequent": "False" }, "geometry": { "type": "Point", "coordinates": [ -122.73017673010172, 45.437959011090982 ] } },
{ "type": "Feature", "properties": { "rte": 44, "dir": 0, "rte_desc": "44-Capitol Hwy\/Mocks Crest", "dir_desc": "To PCC Sylvania", "type": "BUS", "stop_seq": 1400, "stop_id": 6295, "stop_name": "N Willamette & Washburne", "jurisdic": "Portland", "zipcode": "97217", "frequent": "False" }, "geometry": { "type": "Point", "coordinates": [ -122.70593604068436, 45.574380260965413 ] } },
{ "type": "Feature", "properties": { "rte": 44, "dir": 1, "rte_desc": "44-Capitol Hwy\/Mocks Crest", "dir_desc": "To St Johns", "type": "BUS", "stop_seq": 2150, "stop_id": 11486, "stop_name": "SW 6th & Columbia", "jurisdic": "Portland", "zipcode": "97201", "frequent": "False" }, "geometry": { "type": "Point", "coordinates": [ -122.68109464303541, 45.514266728169552 ] } },
{ "type": "Feature", "properties": { "rte": 44, "dir": 1, "rte_desc": "44-Capitol Hwy\/Mocks Crest", "dir_desc": "To St Johns", "type": "BUS", "stop_seq": 2200, "stop_id": 7789, "stop_name": "SW 6th & Salmon", "jurisdic": "Portland", "zipcode": "97204", "frequent": "False" }, "geometry": { "type": "Point", "coordinates": [ -122.67968720178951, 45.5169337336621 ] } },
{ "type": "Feature", "properties": { "rte": 44, "dir": 1, "rte_desc": "44-Capitol Hwy\/Mocks Crest", "dir_desc": "To St Johns", "type": "BUS", "stop_seq": 2250, "stop_id": 7803, "stop_name": "SW 6th & Washington", "jurisdic": "Portland", "zipcode": "97204", "frequent": "False" }, "geometry": { "type": "Point", "coordinates": [ -122.67785941932118, 45.52024400391965 ] } },
{ "type": "Feature", "properties": { "rte": 44, "dir": 1, "rte_desc": "44-Capitol Hwy\/Mocks Crest", "dir_desc": "To St Johns", "type": "BUS", "stop_seq": 2350, "stop_id": 8886, "stop_name": "NW Everett & 5th", "jurisdic": "Portland", "zipcode": "97209", "frequent": "False" }, "geometry": { "type": "Point", "coordinates": [ -122.67562192275049, 45.525182448494625 ] } },
{ "type": "Feature", "properties": { "rte": 44, "dir": 1, "rte_desc": "44-Capitol Hwy\/Mocks Crest", "dir_desc": "To St Johns", "type": "BUS", "stop_seq": 2413, "stop_id": 9300, "stop_name": "NW 6th & Flanders", "jurisdic": "Portland", "zipcode": "97209", "frequent": "False" }, "geometry": { "type": "Point", "coordinates": [ -122.6764411832977, 45.525724762254562 ] } },
{ "type": "Feature", "properties": { "rte": 44, "dir": 1, "rte_desc": "44-Capitol Hwy\/Mocks Crest", "dir_desc": "To St Johns", "type": "BUS", "stop_seq": 50, "stop_id": 4431, "stop_name": "PCC Sylvania Main Stop", "jurisdic": "Portland", "zipcode": "97219", "frequent": "False" }, "geometry": { "type": "Point", "coordinates": [ -122.73017673010172, 45.437959011090982 ] } },
{ "type": "Feature", "properties": { "rte": 44, "dir": 1, "rte_desc": "44-Capitol Hwy\/Mocks Crest", "dir_desc": "To St Johns", "type": "BUS", "stop_seq": 100, "stop_id": 7579, "stop_name": "SW 49th & Hidalgo", "jurisdic": "Lake Oswego", "zipcode": "97035", "frequent": "False" }, "geometry": { "type": "Point", "coordinates": [ -122.7269325531763, 45.439962599950405 ] } },
{ "type": "Feature", "properties": { "rte": 44, "dir": 1, "rte_desc": "44-Capitol Hwy\/Mocks Crest", "dir_desc": "To St Johns", "type": "BUS", "stop_seq": 150, "stop_id": 7578, "stop_name": "SW 49th & Coronado", "jurisdic": "Portland", "zipcode": "97219", "frequent": "False" }, "geometry": { "type": "Point", "coordinates": [ -122.72694397125372, 45.442454405413123 ] } },
{ "type": "Feature", "properties": { "rte": 44, "dir": 1, "rte_desc": "44-Capitol Hwy\/Mocks Crest", "dir_desc": "To St Johns", "type": "BUS", "stop_seq": 200, "stop_id": 952, "stop_name": "SW Capitol & Pomona", "jurisdic": "Portland", "zipcode": "97219", "frequent": "False" }, "geometry": { "type": "Point", "coordinates": [ -122.72656036901752, 45.445268249227588 ] } },
{ "type": "Feature", "properties": { "rte": 44, "dir": 1, "rte_desc": "44-Capitol Hwy\/Mocks Crest", "dir_desc": "To St Johns", "type": "BUS", "stop_seq": 250, "stop_id": 932, "stop_name": "SW Capitol & Dickinson", "jurisdic": "Portland", "zipcode": "97219", "frequent": "False" }, "geometry": { "type": "Point", "coordinates": [ -122.7251803831506, 45.447354895473978 ] } },
{ "type": "Feature", "properties": { "rte": 44, "dir": 1, "rte_desc": "44-Capitol Hwy\/Mocks Crest", "dir_desc": "To St Johns", "type": "BUS", "stop_seq": 300, "stop_id": 937, "stop_name": "SW Capitol & Galeburn", "jurisdic": "Portland", "zipcode": "97219", "frequent": "False" }, "geometry": { "type": "Point", "coordinates": [ -122.72409327569808, 45.449208643240041 ] } },
{ "type": "Feature", "properties": { "rte": 44, "dir": 1, "rte_desc": "44-Capitol Hwy\/Mocks Crest", "dir_desc": "To St Johns", "type": "BUS", "stop_seq": 350, "stop_id": 923, "stop_name": "SW Capitol & Barbur", "jurisdic": "Portland", "zipcode": "97219", "frequent": "False" }, "geometry": { "type": "Point", "coordinates": [ -122.72144052863375, 45.452930613244774 ] } },
{ "type": "Feature", "properties": { "rte": 44, "dir": 1, "rte_desc": "44-Capitol Hwy\/Mocks Crest", "dir_desc": "To St Johns", "type": "BUS", "stop_seq": 400, "stop_id": 10935, "stop_name": "SW Capitol & Taylors Ferry", "jurisdic": "Portland", "zipcode": "97219", "frequent": "False" }, "geometry": { "type": "Point", "coordinates": [ -122.72012655087607, 45.454969696834304 ] } },
{ "type": "Feature", "properties": { "rte": 44, "dir": 1, "rte_desc": "44-Capitol Hwy\/Mocks Crest", "dir_desc": "To St Johns", "type": "BUS", "stop_seq": 450, "stop_id": 975, "stop_name": "SW Capitol & Brugger", "jurisdic": "Portland", "zipcode": "97219", "frequent": "False" }, "geometry": { "type": "Point", "coordinates": [ -122.71921622989296, 45.455890269450663 ] } },
{ "type": "Feature", "properties": { "rte": 44, "dir": 1, "rte_desc": "44-Capitol Hwy\/Mocks Crest", "dir_desc": "To St Johns", "type": "BUS", "stop_seq": 500, "stop_id": 922, "stop_name": "SW Capitol & Alice", "jurisdic": "Portland", "zipcode": "97219", "frequent": "False" }, "geometry": { "type": "Point", "coordinates": [ -122.71892138876215, 45.458246354084196 ] } },
{ "type": "Feature", "properties": { "rte": 44, "dir": 1, "rte_desc": "44-Capitol Hwy\/Mocks Crest", "dir_desc": "To St Johns", "type": "BUS", "stop_seq": 600, "stop_id": 946, "stop_name": "SW Capitol & Marigold", "jurisdic": "Portland", "zipcode": "97219", "frequent": "False" }, "geometry": { "type": "Point", "coordinates": [ -122.71904278475115, 45.460357934125831 ] } },
{ "type": "Feature", "properties": { "rte": 44, "dir": 1, "rte_desc": "44-Capitol Hwy\/Mocks Crest", "dir_desc": "To St Johns", "type": "BUS", "stop_seq": 650, "stop_id": 934, "stop_name": "SW Capitol & Dolph", "jurisdic": "Portland", "zipcode": "97219", "frequent": "False" }, "geometry": { "type": "Point", "coordinates": [ -122.71886760722917, 45.462053654083888 ] } },
{ "type": "Feature", "properties": { "rte": 44, "dir": 1, "rte_desc": "44-Capitol Hwy\/Mocks Crest", "dir_desc": "To St Johns", "type": "BUS", "stop_seq": 850, "stop_id": 972, "stop_name": "SW Capitol & 35th", "jurisdic": "Portland", "zipcode": "97219", "frequent": "False" }, "geometry": { "type": "Point", "coordinates": [ -122.71297330013273, 45.467988610126618 ] } },
{ "type": "Feature", "properties": { "rte": 44, "dir": 1, "rte_desc": "44-Capitol Hwy\/Mocks Crest", "dir_desc": "To St Johns", "type": "BUS", "stop_seq": 900, "stop_id": 971, "stop_name": "SW Capitol & 33rd", "jurisdic": "Portland", "zipcode": "97219", "frequent": "False" }, "geometry": { "type": "Point", "coordinates": [ -122.71017312689568, 45.468549454761593 ] } },
{ "type": "Feature", "properties": { "rte": 44, "dir": 1, "rte_desc": "44-Capitol Hwy\/Mocks Crest", "dir_desc": "To St Johns", "type": "BUS", "stop_seq": 1000, "stop_id": 948, "stop_name": "SW Capitol & Miles", "jurisdic": "Portland", "zipcode": "97219", "frequent": "False" }, "geometry": { "type": "Point", "coordinates": [ -122.7076240865709, 45.470573258025105 ] } },
{ "type": "Feature", "properties": { "rte": 44, "dir": 1, "rte_desc": "44-Capitol Hwy\/Mocks Crest", "dir_desc": "To St Johns", "type": "BUS", "stop_seq": 1050, "stop_id": 959, "stop_name": "SW Capitol & California", "jurisdic": "Portland", "zipcode": "97219", "frequent": "False" }, "geometry": { "type": "Point", "coordinates": [ -122.70757273609546, 45.474396968559667 ] } },
{ "type": "Feature", "properties": { "rte": 44, "dir": 1, "rte_desc": "44-Capitol Hwy\/Mocks Crest", "dir_desc": "To St Johns", "type": "BUS", "stop_seq": 1100, "stop_id": 6023, "stop_name": "SW Capitol & Vermont", "jurisdic": "Portland", "zipcode": "97219", "frequent": "False" }, "geometry": { "type": "Point", "coordinates": [ -122.70594353075718, 45.475996752193169 ] } },
{ "type": "Feature", "properties": { "rte": 44, "dir": 1, "rte_desc": "44-Capitol Hwy\/Mocks Crest", "dir_desc": "To St Johns", "type": "BUS", "stop_seq": 1150, "stop_id": 965, "stop_name": "SW Capitol & 26th", "jurisdic": "Portland", "zipcode": "97219", "frequent": "False" }, "geometry": { "type": "Point", "coordinates": [ -122.70348116558583, 45.475995720334019 ] } },
{ "type": "Feature", "properties": { "rte": 44, "dir": 1, "rte_desc": "44-Capitol Hwy\/Mocks Crest", "dir_desc": "To St Johns", "type": "BUS", "stop_seq": 1200, "stop_id": 942, "stop_name": "SW Capitol & Idaho", "jurisdic": "Portland", "zipcode": "97239", "frequent": "False" }, "geometry": { "type": "Point", "coordinates": [ -122.70159997950674, 45.476685043838486 ] } },
{ "type": "Feature", "properties": { "rte": 44, "dir": 1, "rte_desc": "44-Capitol Hwy\/Mocks Crest", "dir_desc": "To St Johns", "type": "BUS", "stop_seq": 1250, "stop_id": 963, "stop_name": "SW Capitol & Nebraska", "jurisdic": "Portland", "zipcode": "97239", "frequent": "False" }, "geometry": { "type": "Point", "coordinates": [ -122.69925214789519, 45.477651144557058 ] } },
{ "type": "Feature", "properties": { "rte": 44, "dir": 1, "rte_desc": "44-Capitol Hwy\/Mocks Crest", "dir_desc": "To St Johns", "type": "BUS", "stop_seq": 1300, "stop_id": 925, "stop_name": "SW Capitol & Bertha Ct", "jurisdic": "Portland", "zipcode": "97239", "frequent": "False" }, "geometry": { "type": "Point", "coordinates": [ -122.69636752797885, 45.478080071921895 ] } },
{ "type": "Feature", "properties": { "rte": 44, "dir": 1, "rte_desc": "44-Capitol Hwy\/Mocks Crest", "dir_desc": "To St Johns", "type": "BUS", "stop_seq": 1350, "stop_id": 929, "stop_name": "SW Capitol & Sunset", "jurisdic": "Portland", "zipcode": "97239", "frequent": "False" }, "geometry": { "type": "Point", "coordinates": [ -122.69285640366002, 45.478791374474341 ] } },
{ "type": "Feature", "properties": { "rte": 44, "dir": 1, "rte_desc": "44-Capitol Hwy\/Mocks Crest", "dir_desc": "To St Johns", "type": "BUS", "stop_seq": 1400, "stop_id": 956, "stop_name": "SW Capitol & Terwilliger", "jurisdic": "Portland", "zipcode": "97239", "frequent": "False" }, "geometry": { "type": "Point", "coordinates": [ -122.68728093043626, 45.480041116149245 ] } },
{ "type": "Feature", "properties": { "rte": 44, "dir": 1, "rte_desc": "44-Capitol Hwy\/Mocks Crest", "dir_desc": "To St Johns", "type": "BUS", "stop_seq": 1450, "stop_id": 156, "stop_name": "4900 Block SW Barbur", "jurisdic": "Portland", "zipcode": "97239", "frequent": "False" }, "geometry": { "type": "Point", "coordinates": [ -122.68251463988021, 45.487677128400833 ] } },
{ "type": "Feature", "properties": { "rte": 44, "dir": 1, "rte_desc": "44-Capitol Hwy\/Mocks Crest", "dir_desc": "To St Johns", "type": "BUS", "stop_seq": 1500, "stop_id": 172, "stop_name": "SW Barbur & Hamilton", "jurisdic": "Portland", "zipcode": "97239", "frequent": "False" }, "geometry": { "type": "Point", "coordinates": [ -122.67772473005715, 45.491185992510019 ] } },
{ "type": "Feature", "properties": { "rte": 44, "dir": 1, "rte_desc": "44-Capitol Hwy\/Mocks Crest", "dir_desc": "To St Johns", "type": "BUS", "stop_seq": 1550, "stop_id": 177, "stop_name": "SW Barbur & Lane", "jurisdic": "Portland", "zipcode": "97239", "frequent": "False" }, "geometry": { "type": "Point", "coordinates": [ -122.6780043228777, 45.495936828305709 ] } },
{ "type": "Feature", "properties": { "rte": 44, "dir": 1, "rte_desc": "44-Capitol Hwy\/Mocks Crest", "dir_desc": "To St Johns", "type": "BUS", "stop_seq": 1600, "stop_id": 186, "stop_name": "SW Barbur & Pennoyer", "jurisdic": "Portland", "zipcode": "97239", "frequent": "False" }, "geometry": { "type": "Point", "coordinates": [ -122.6790737405406, 45.497755942204329 ] } },
{ "type": "Feature", "properties": { "rte": 44, "dir": 1, "rte_desc": "44-Capitol Hwy\/Mocks Crest", "dir_desc": "To St Johns", "type": "BUS", "stop_seq": 1650, "stop_id": 195, "stop_name": "SW Barbur & Whitaker", "jurisdic": "Portland", "zipcode": "97239", "frequent": "False" }, "geometry": { "type": "Point", "coordinates": [ -122.67978695102479, 45.499070177440636 ] } },
{ "type": "Feature", "properties": { "rte": 44, "dir": 1, "rte_desc": "44-Capitol Hwy\/Mocks Crest", "dir_desc": "To St Johns", "type": "BUS", "stop_seq": 1700, "stop_id": 197, "stop_name": "SW Barbur & Woods", "jurisdic": "Portland", "zipcode": "97201", "frequent": "False" }, "geometry": { "type": "Point", "coordinates": [ -122.68075635467331, 45.500752912794695 ] } },
{ "type": "Feature", "properties": { "rte": 44, "dir": 1, "rte_desc": "44-Capitol Hwy\/Mocks Crest", "dir_desc": "To St Johns", "type": "BUS", "stop_seq": 1750, "stop_id": 174, "stop_name": "SW Barbur & Hooker", "jurisdic": "Portland", "zipcode": "97201", "frequent": "False" }, "geometry": { "type": "Point", "coordinates": [ -122.68147775066817, 45.502087120440855 ] } },
{ "type": "Feature", "properties": { "rte": 44, "dir": 1, "rte_desc": "44-Capitol Hwy\/Mocks Crest", "dir_desc": "To St Johns", "type": "BUS", "stop_seq": 1800, "stop_id": 12762, "stop_name": "SW 4th & Caruthers", "jurisdic": "Portland", "zipcode": "97201", "frequent": "False" }, "geometry": { "type": "Point", "coordinates": [ -122.68187855926611, 45.50552195865172 ] } },
{ "type": "Feature", "properties": { "rte": 44, "dir": 1, "rte_desc": "44-Capitol Hwy\/Mocks Crest", "dir_desc": "To St Johns", "type": "BUS", "stop_seq": 1850, "stop_id": 12763, "stop_name": "SW 4th & Hall", "jurisdic": "Portland", "zipcode": "97201", "frequent": "False" }, "geometry": { "type": "Point", "coordinates": [ -122.68134418257755, 45.509479338861688 ] } },
{ "type": "Feature", "properties": { "rte": 44, "dir": 1, "rte_desc": "44-Capitol Hwy\/Mocks Crest", "dir_desc": "To St Johns", "type": "BUS", "stop_seq": 2400, "stop_id": 1612, "stop_name": "NW Everett & 2nd", "jurisdic": "Portland", "zipcode": "97209", "frequent": "False" }, "geometry": { "type": "Point", "coordinates": [ -122.67259670124606, 45.52522407884581 ] } },
{ "type": "Feature", "properties": { "rte": 44, "dir": 1, "rte_desc": "44-Capitol Hwy\/Mocks Crest", "dir_desc": "To St Johns", "type": "BUS", "stop_seq": 2600, "stop_id": 1097, "stop_name": "Rose Quarter Transit Center", "jurisdic": "Portland", "zipcode": "97232", "frequent": "False" }, "geometry": { "type": "Point", "coordinates": [ -122.66564585634001, 45.530668919653635 ] } },
{ "type": "Feature", "properties": { "rte": 44, "dir": 1, "rte_desc": "44-Capitol Hwy\/Mocks Crest", "dir_desc": "To St Johns", "type": "BUS", "stop_seq": 2700, "stop_id": 6357, "stop_name": "N Williams & NE Broadway", "jurisdic": "Portland", "zipcode": "97212", "frequent": "False" }, "geometry": { "type": "Point", "coordinates": [ -122.6666375224694, 45.535808563690544 ] } },
{ "type": "Feature", "properties": { "rte": 44, "dir": 1, "rte_desc": "44-Capitol Hwy\/Mocks Crest", "dir_desc": "To St Johns", "type": "BUS", "stop_seq": 2750, "stop_id": 6370, "stop_name": "N Williams & NE Tillamook", "jurisdic": "Portland", "zipcode": "97227", "frequent": "False" }, "geometry": { "type": "Point", "coordinates": [ -122.6666146452893, 45.538250181659521 ] } },
{ "type": "Feature", "properties": { "rte": 44, "dir": 1, "rte_desc": "44-Capitol Hwy\/Mocks Crest", "dir_desc": "To St Johns", "type": "BUS", "stop_seq": 2850, "stop_id": 6354, "stop_name": "N Williams & NE Russell", "jurisdic": "Portland", "zipcode": "97227", "frequent": "False" }, "geometry": { "type": "Point", "coordinates": [ -122.66658651074484, 45.541357712993133 ] } },
{ "type": "Feature", "properties": { "rte": 44, "dir": 1, "rte_desc": "44-Capitol Hwy\/Mocks Crest", "dir_desc": "To St Johns", "type": "BUS", "stop_seq": 2900, "stop_id": 6362, "stop_name": "N Williams & NE Graham", "jurisdic": "Portland", "zipcode": "97227", "frequent": "False" }, "geometry": { "type": "Point", "coordinates": [ -122.66657071302306, 45.542732753802952 ] } },
{ "type": "Feature", "properties": { "rte": 44, "dir": 1, "rte_desc": "44-Capitol Hwy\/Mocks Crest", "dir_desc": "To St Johns", "type": "BUS", "stop_seq": 2950, "stop_id": 6364, "stop_name": "N Williams & NE Morris", "jurisdic": "Portland", "zipcode": "97212", "frequent": "False" }, "geometry": { "type": "Point", "coordinates": [ -122.66655454203635, 45.54444916080714 ] } },
{ "type": "Feature", "properties": { "rte": 44, "dir": 1, "rte_desc": "44-Capitol Hwy\/Mocks Crest", "dir_desc": "To St Johns", "type": "BUS", "stop_seq": 3000, "stop_id": 6359, "stop_name": "N Williams & NE Cook", "jurisdic": "Portland", "zipcode": "97227", "frequent": "False" }, "geometry": { "type": "Point", "coordinates": [ -122.66660656495108, 45.546977126244052 ] } },
{ "type": "Feature", "properties": { "rte": 44, "dir": 1, "rte_desc": "44-Capitol Hwy\/Mocks Crest", "dir_desc": "To St Johns", "type": "BUS", "stop_seq": 3050, "stop_id": 6360, "stop_name": "N Williams & NE Fremont", "jurisdic": "Portland", "zipcode": "97227", "frequent": "False" }, "geometry": { "type": "Point", "coordinates": [ -122.66658642663594, 45.548508668697266 ] } },
{ "type": "Feature", "properties": { "rte": 44, "dir": 1, "rte_desc": "44-Capitol Hwy\/Mocks Crest", "dir_desc": "To St Johns", "type": "BUS", "stop_seq": 3150, "stop_id": 6366, "stop_name": "N Williams & NE Shaver", "jurisdic": "Portland", "zipcode": "97212", "frequent": "False" }, "geometry": { "type": "Point", "coordinates": [ -122.66661734719933, 45.551939338065502 ] } },
{ "type": "Feature", "properties": { "rte": 44, "dir": 1, "rte_desc": "44-Capitol Hwy\/Mocks Crest", "dir_desc": "To St Johns", "type": "BUS", "stop_seq": 3200, "stop_id": 6367, "stop_name": "N Williams & NE Skidmore", "jurisdic": "Portland", "zipcode": "97217", "frequent": "False" }, "geometry": { "type": "Point", "coordinates": [ -122.66664606737689, 45.554482764731198 ] } },
{ "type": "Feature", "properties": { "rte": 44, "dir": 1, "rte_desc": "44-Capitol Hwy\/Mocks Crest", "dir_desc": "To St Johns", "type": "BUS", "stop_seq": 3300, "stop_id": 6371, "stop_name": "N Williams & NE Wygant", "jurisdic": "Portland", "zipcode": "97217", "frequent": "False" }, "geometry": { "type": "Point", "coordinates": [ -122.66661698992134, 45.557559421577423 ] } },
{ "type": "Feature", "properties": { "rte": 44, "dir": 1, "rte_desc": "44-Capitol Hwy\/Mocks Crest", "dir_desc": "To St Johns", "type": "BUS", "stop_seq": 3350, "stop_id": 6355, "stop_name": "N Williams & NE Alberta", "jurisdic": "Portland", "zipcode": "97217", "frequent": "False" }, "geometry": { "type": "Point", "coordinates": [ -122.66659032303409, 45.559017087288389 ] } },
{ "type": "Feature", "properties": { "rte": 44, "dir": 1, "rte_desc": "44-Capitol Hwy\/Mocks Crest", "dir_desc": "To St Johns", "type": "BUS", "stop_seq": 3450, "stop_id": 10463, "stop_name": "N Williams & Emerson", "jurisdic": "Portland", "zipcode": "97217", "frequent": "False" }, "geometry": { "type": "Point", "coordinates": [ -122.66682804272617, 45.561596879895077 ] } },
{ "type": "Feature", "properties": { "rte": 44, "dir": 1, "rte_desc": "44-Capitol Hwy\/Mocks Crest", "dir_desc": "To St Johns", "type": "BUS", "stop_seq": 3500, "stop_id": 3184, "stop_name": "N Killingsworth & Vancouver", "jurisdic": "Portland", "zipcode": "97217", "frequent": "False" }, "geometry": { "type": "Point", "coordinates": [ -122.66836122685274, 45.56277524750309 ] } },
{ "type": "Feature", "properties": { "rte": 44, "dir": 1, "rte_desc": "44-Capitol Hwy\/Mocks Crest", "dir_desc": "To St Johns", "type": "BUS", "stop_seq": 3550, "stop_id": 3070, "stop_name": "N Vancouver & Jessup", "jurisdic": "Portland", "zipcode": "97217", "frequent": "False" }, "geometry": { "type": "Point", "coordinates": [ -122.6686597228331, 45.563773284019739 ] } },
{ "type": "Feature", "properties": { "rte": 44, "dir": 1, "rte_desc": "44-Capitol Hwy\/Mocks Crest", "dir_desc": "To St Johns", "type": "BUS", "stop_seq": 3600, "stop_id": 5976, "stop_name": "N Vancouver & Ainsworth", "jurisdic": "Portland", "zipcode": "97217", "frequent": "False" }, "geometry": { "type": "Point", "coordinates": [ -122.66872177333771, 45.56630180076894 ] } },
{ "type": "Feature", "properties": { "rte": 44, "dir": 1, "rte_desc": "44-Capitol Hwy\/Mocks Crest", "dir_desc": "To St Johns", "type": "BUS", "stop_seq": 3650, "stop_id": 5991, "stop_name": "N Vancouver & Holman", "jurisdic": "Portland", "zipcode": "97217", "frequent": "False" }, "geometry": { "type": "Point", "coordinates": [ -122.66874291766818, 45.567647417725048 ] } },
{ "type": "Feature", "properties": { "rte": 44, "dir": 1, "rte_desc": "44-Capitol Hwy\/Mocks Crest", "dir_desc": "To St Johns", "type": "BUS", "stop_seq": 3700, "stop_id": 4485, "stop_name": "N Rosa Parks Way & Vancouver", "jurisdic": "Portland", "zipcode": "97217", "frequent": "False" }, "geometry": { "type": "Point", "coordinates": [ -122.66942939169738, 45.570037485965784 ] } },
{ "type": "Feature", "properties": { "rte": 44, "dir": 1, "rte_desc": "44-Capitol Hwy\/Mocks Crest", "dir_desc": "To St Johns", "type": "BUS", "stop_seq": 3750, "stop_id": 4458, "stop_name": "N Rosa Parks Way & Congress", "jurisdic": "Portland", "zipcode": "97217", "frequent": "False" }, "geometry": { "type": "Point", "coordinates": [ -122.67211081405964, 45.570030004568544 ] } },
{ "type": "Feature", "properties": { "rte": 44, "dir": 1, "rte_desc": "44-Capitol Hwy\/Mocks Crest", "dir_desc": "To St Johns", "type": "BUS", "stop_seq": 3800, "stop_id": 8814, "stop_name": "N Rosa Parks Way & Albina", "jurisdic": "Portland", "zipcode": "97217", "frequent": "False" }, "geometry": { "type": "Point", "coordinates": [ -122.6746503616961, 45.570015458765091 ] } },
{ "type": "Feature", "properties": { "rte": 44, "dir": 1, "rte_desc": "44-Capitol Hwy\/Mocks Crest", "dir_desc": "To St Johns", "type": "BUS", "stop_seq": 3900, "stop_id": 4473, "stop_name": "N Rosa Parks Way & Interstate", "jurisdic": "Portland", "zipcode": "97217", "frequent": "False" }, "geometry": { "type": "Point", "coordinates": [ -122.68174318136776, 45.569986146467905 ] } },
{ "type": "Feature", "properties": { "rte": 44, "dir": 1, "rte_desc": "44-Capitol Hwy\/Mocks Crest", "dir_desc": "To St Johns", "type": "BUS", "stop_seq": 4000, "stop_id": 4465, "stop_name": "N Rosa Parks Way & Denver", "jurisdic": "Portland", "zipcode": "97217", "frequent": "False" }, "geometry": { "type": "Point", "coordinates": [ -122.68714915962352, 45.570004304543815 ] } },
{ "type": "Feature", "properties": { "rte": 44, "dir": 1, "rte_desc": "44-Capitol Hwy\/Mocks Crest", "dir_desc": "To St Johns", "type": "BUS", "stop_seq": 4100, "stop_id": 4464, "stop_name": "N Rosa Parks Way & Delaware", "jurisdic": "Portland", "zipcode": "97217", "frequent": "False" }, "geometry": { "type": "Point", "coordinates": [ -122.69226886004665, 45.570031359498643 ] } },
{ "type": "Feature", "properties": { "rte": 44, "dir": 1, "rte_desc": "44-Capitol Hwy\/Mocks Crest", "dir_desc": "To St Johns", "type": "BUS", "stop_seq": 4150, "stop_id": 4471, "stop_name": "N Rosa Parks Way & Greeley", "jurisdic": "Portland", "zipcode": "97217", "frequent": "False" }, "geometry": { "type": "Point", "coordinates": [ -122.6952894825308, 45.570037620608794 ] } },
{ "type": "Feature", "properties": { "rte": 44, "dir": 1, "rte_desc": "44-Capitol Hwy\/Mocks Crest", "dir_desc": "To St Johns", "type": "BUS", "stop_seq": 4250, "stop_id": 8329, "stop_name": "N Rosa Parks Way & Knowles", "jurisdic": "Portland", "zipcode": "97217", "frequent": "False" }, "geometry": { "type": "Point", "coordinates": [ -122.69917869261785, 45.570038413207932 ] } },
{ "type": "Feature", "properties": { "rte": 44, "dir": 1, "rte_desc": "44-Capitol Hwy\/Mocks Crest", "dir_desc": "To St Johns", "type": "BUS", "stop_seq": 4450, "stop_id": 6273, "stop_name": "N Willamette & Hurst", "jurisdic": "Portland", "zipcode": "97203", "frequent": "False" }, "geometry": { "type": "Point", "coordinates": [ -122.70889158175687, 45.575153703626661 ] } },
{ "type": "Feature", "properties": { "rte": 44, "dir": 1, "rte_desc": "44-Capitol Hwy\/Mocks Crest", "dir_desc": "To St Johns", "type": "BUS", "stop_seq": 4550, "stop_id": 6298, "stop_name": "N Willamette & Woolsey", "jurisdic": "Portland", "zipcode": "97203", "frequent": "False" }, "geometry": { "type": "Point", "coordinates": [ -122.71328028780121, 45.575361954885928 ] } },
{ "type": "Feature", "properties": { "rte": 44, "dir": 1, "rte_desc": "44-Capitol Hwy\/Mocks Crest", "dir_desc": "To St Johns", "type": "BUS", "stop_seq": 4650, "stop_id": 6277, "stop_name": "N Willamette & Menlo", "jurisdic": "Portland", "zipcode": "97203", "frequent": "False" }, "geometry": { "type": "Point", "coordinates": [ -122.71842378387059, 45.57463090619548 ] } },
{ "type": "Feature", "properties": { "rte": 44, "dir": 1, "rte_desc": "44-Capitol Hwy\/Mocks Crest", "dir_desc": "To St Johns", "type": "BUS", "stop_seq": 4750, "stop_id": 6271, "stop_name": "N Willamette & Haven", "jurisdic": "Portland", "zipcode": "97203", "frequent": "False" }, "geometry": { "type": "Point", "coordinates": [ -122.72456052903584, 45.574542046060238 ] } },
{ "type": "Feature", "properties": { "rte": 44, "dir": 1, "rte_desc": "44-Capitol Hwy\/Mocks Crest", "dir_desc": "To St Johns", "type": "BUS", "stop_seq": 4850, "stop_id": 6284, "stop_name": "N Willamette & Portsmouth", "jurisdic": "Portland", "zipcode": "97203", "frequent": "False" }, "geometry": { "type": "Point", "coordinates": [ -122.72859814836845, 45.576042299336947 ] } },
{ "type": "Feature", "properties": { "rte": 44, "dir": 1, "rte_desc": "44-Capitol Hwy\/Mocks Crest", "dir_desc": "To St Johns", "type": "BUS", "stop_seq": 4900, "stop_id": 6280, "stop_name": "N Willamette & Monteith", "jurisdic": "Portland", "zipcode": "97203", "frequent": "False" }, "geometry": { "type": "Point", "coordinates": [ -122.73193222693001, 45.577267790655142 ] } },
{ "type": "Feature", "properties": { "rte": 44, "dir": 1, "rte_desc": "44-Capitol Hwy\/Mocks Crest", "dir_desc": "To St Johns", "type": "BUS", "stop_seq": 4950, "stop_id": 6292, "stop_name": "N Willamette & Wall", "jurisdic": "Portland", "zipcode": "97203", "frequent": "False" }, "geometry": { "type": "Point", "coordinates": [ -122.73406213233146, 45.578388941909218 ] } },
{ "type": "Feature", "properties": { "rte": 44, "dir": 1, "rte_desc": "44-Capitol Hwy\/Mocks Crest", "dir_desc": "To St Johns", "type": "BUS", "stop_seq": 5000, "stop_id": 6275, "stop_name": "N Willamette & Macrum", "jurisdic": "Portland", "zipcode": "97203", "frequent": "False" }, "geometry": { "type": "Point", "coordinates": [ -122.73719435792461, 45.580095788637948 ] } },
{ "type": "Feature", "properties": { "rte": 44, "dir": 1, "rte_desc": "44-Capitol Hwy\/Mocks Crest", "dir_desc": "To St Johns", "type": "BUS", "stop_seq": 5050, "stop_id": 6264, "stop_name": "N Willamette & Carey", "jurisdic": "Portland", "zipcode": "97203", "frequent": "False" }, "geometry": { "type": "Point", "coordinates": [ -122.73976185487787, 45.581714351045584 ] } },
{ "type": "Feature", "properties": { "rte": 44, "dir": 1, "rte_desc": "44-Capitol Hwy\/Mocks Crest", "dir_desc": "To St Johns", "type": "BUS", "stop_seq": 5100, "stop_id": 6258, "stop_name": "N Willamette & Alma", "jurisdic": "Portland", "zipcode": "97203", "frequent": "False" }, "geometry": { "type": "Point", "coordinates": [ -122.74236373011429, 45.582468137171524 ] } },
{ "type": "Feature", "properties": { "rte": 44, "dir": 1, "rte_desc": "44-Capitol Hwy\/Mocks Crest", "dir_desc": "To St Johns", "type": "BUS", "stop_seq": 5150, "stop_id": 6263, "stop_name": "N Willamette & Burr", "jurisdic": "Portland", "zipcode": "97203", "frequent": "False" }, "geometry": { "type": "Point", "coordinates": [ -122.7440427113763, 45.583539309953373 ] } },
{ "type": "Feature", "properties": { "rte": 44, "dir": 1, "rte_desc": "44-Capitol Hwy\/Mocks Crest", "dir_desc": "To St Johns", "type": "BUS", "stop_seq": 5200, "stop_id": 6283, "stop_name": "N Willamette & Edgewater", "jurisdic": "Portland", "zipcode": "97203", "frequent": "False" }, "geometry": { "type": "Point", "coordinates": [ -122.74642274409236, 45.58445560144326 ] } },
{ "type": "Feature", "properties": { "rte": 44, "dir": 1, "rte_desc": "44-Capitol Hwy\/Mocks Crest", "dir_desc": "To St Johns", "type": "BUS", "stop_seq": 5250, "stop_id": 6288, "stop_name": "N Willamette & Tyler", "jurisdic": "Portland", "zipcode": "97203", "frequent": "False" }, "geometry": { "type": "Point", "coordinates": [ -122.7492545270559, 45.585379618703975 ] } },
{ "type": "Feature", "properties": { "rte": 44, "dir": 1, "rte_desc": "44-Capitol Hwy\/Mocks Crest", "dir_desc": "To St Johns", "type": "BUS", "stop_seq": 5300, "stop_id": 6282, "stop_name": "N Willamette & Oswego", "jurisdic": "Portland", "zipcode": "97203", "frequent": "False" }, "geometry": { "type": "Point", "coordinates": [ -122.75161174655483, 45.586146596781518 ] } },
{ "type": "Feature", "properties": { "rte": 44, "dir": 1, "rte_desc": "44-Capitol Hwy\/Mocks Crest", "dir_desc": "To St Johns", "type": "BUS", "stop_seq": 5350, "stop_id": 4817, "stop_name": "N Richmond & Syracuse", "jurisdic": "Portland", "zipcode": "97203", "frequent": "False" }, "geometry": { "type": "Point", "coordinates": [ -122.75186177436497, 45.587592001621836 ] } },
{ "type": "Feature", "properties": { "rte": 44, "dir": 1, "rte_desc": "44-Capitol Hwy\/Mocks Crest", "dir_desc": "To St Johns", "type": "BUS", "stop_seq": 5450, "stop_id": 8653, "stop_name": "N Charleston & Lombard St", "jurisdic": "Portland", "zipcode": "97203", "frequent": "False" }, "geometry": { "type": "Point", "coordinates": [ -122.75212182080372, 45.588980873450218 ] } },
{ "type": "Feature", "properties": { "rte": 44, "dir": 1, "rte_desc": "44-Capitol Hwy\/Mocks Crest", "dir_desc": "To St Johns", "type": "BUS", "stop_seq": 5500, "stop_id": 3509, "stop_name": "N Lombard & John", "jurisdic": "Portland", "zipcode": "97203", "frequent": "False" }, "geometry": { "type": "Point", "coordinates": [ -122.75267956524134, 45.589588637905152 ] } },
{ "type": "Feature", "properties": { "rte": 44, "dir": 1, "rte_desc": "44-Capitol Hwy\/Mocks Crest", "dir_desc": "To St Johns", "type": "BUS", "stop_seq": 5550, "stop_id": 3467, "stop_name": "N Lombard & Burlington", "jurisdic": "Portland", "zipcode": "97203", "frequent": "False" }, "geometry": { "type": "Point", "coordinates": [ -122.75428268479548, 45.590102478492113 ] } },
{ "type": "Feature", "properties": { "rte": 44, "dir": 1, "rte_desc": "44-Capitol Hwy\/Mocks Crest", "dir_desc": "To St Johns", "type": "BUS", "stop_seq": 5600, "stop_id": 8480, "stop_name": "N Lombard & Baltimore", "jurisdic": "Portland", "zipcode": "97203", "frequent": "False" }, "geometry": { "type": "Point", "coordinates": [ -122.75570665474048, 45.591107330829892 ] } },
{ "type": "Feature", "properties": { "rte": 44, "dir": 1, "rte_desc": "44-Capitol Hwy\/Mocks Crest", "dir_desc": "To St Johns", "type": "BUS", "stop_seq": 5650, "stop_id": 3525, "stop_name": "N Lombard & New York", "jurisdic": "Portland", "zipcode": "97203", "frequent": "False" }, "geometry": { "type": "Point", "coordinates": [ -122.75686410669665, 45.592307592466341 ] } },
{ "type": "Feature", "properties": { "rte": 44, "dir": 1, "rte_desc": "44-Capitol Hwy\/Mocks Crest", "dir_desc": "To St Johns", "type": "BUS", "stop_seq": 5700, "stop_id": 9431, "stop_name": "N Lombard & Catlin", "jurisdic": "Portland", "zipcode": "97203", "frequent": "False" }, "geometry": { "type": "Point", "coordinates": [ -122.7590655005969, 45.59457936674815 ] } },
{ "type": "Feature", "properties": { "rte": 44, "dir": 1, "rte_desc": "44-Capitol Hwy\/Mocks Crest", "dir_desc": "To St Johns", "type": "BUS", "stop_seq": 5750, "stop_id": 9576, "stop_name": "N Lombard & Reno", "jurisdic": "Portland", "zipcode": "97203", "frequent": "False" }, "geometry": { "type": "Point", "coordinates": [ -122.76110934023905, 45.597983970980223 ] } },
{ "type": "Feature", "properties": { "rte": 44, "dir": 1, "rte_desc": "44-Capitol Hwy\/Mocks Crest", "dir_desc": "To St Johns", "type": "BUS", "stop_seq": 5800, "stop_id": 9432, "stop_name": "N Lombard & Weyerhauser", "jurisdic": "Portland", "zipcode": "97203", "frequent": "False" }, "geometry": { "type": "Point", "coordinates": [ -122.76227322596276, 45.599936715805796 ] } },
{ "type": "Feature", "properties": { "rte": 44, "dir": 1, "rte_desc": "44-Capitol Hwy\/Mocks Crest", "dir_desc": "To St Johns", "type": "BUS", "stop_seq": 5850, "stop_id": 10095, "stop_name": "Pier Park", "jurisdic": "Portland", "zipcode": "97203", "frequent": "False" }, "geometry": { "type": "Point", "coordinates": [ -122.76234383775522, 45.602113568669495 ] } },
{ "type": "Feature", "properties": { "rte": 44, "dir": 1, "rte_desc": "44-Capitol Hwy\/Mocks Crest", "dir_desc": "To St Johns", "type": "BUS", "stop_seq": 2000, "stop_id": 7772, "stop_name": "SW 6th & Market", "jurisdic": "Portland", "zipcode": "97201", "frequent": "False" }, "geometry": { "type": "Point", "coordinates": [ -122.68181137567852, 45.512946379080319 ] } },
{ "type": "Feature", "properties": { "rte": 44, "dir": 1, "rte_desc": "44-Capitol Hwy\/Mocks Crest", "dir_desc": "To St Johns", "type": "BUS", "stop_seq": 4700, "stop_id": 6269, "stop_name": "N Willamette & Harvard", "jurisdic": "Portland", "zipcode": "97203", "frequent": "False" }, "geometry": { "type": "Point", "coordinates": [ -122.72039066593167, 45.573955880149512 ] } },
{ "type": "Feature", "properties": { "rte": 44, "dir": 1, "rte_desc": "44-Capitol Hwy\/Mocks Crest", "dir_desc": "To St Johns", "type": "BUS", "stop_seq": 800, "stop_id": 939, "stop_name": "SW Capitol & Garden Home", "jurisdic": "Portland", "zipcode": "97219", "frequent": "False" }, "geometry": { "type": "Point", "coordinates": [ -122.7163557867509, 45.466705088729903 ] } },
{ "type": "Feature", "properties": { "rte": 44, "dir": 1, "rte_desc": "44-Capitol Hwy\/Mocks Crest", "dir_desc": "To St Johns", "type": "BUS", "stop_seq": 725, "stop_id": 13347, "stop_name": "SW Capitol & Carson", "jurisdic": "Portland", "zipcode": "97219", "frequent": "False" }, "geometry": { "type": "Point", "coordinates": [ -122.71790985730833, 45.464329607045443 ] } },
{ "type": "Feature", "properties": { "rte": 44, "dir": 1, "rte_desc": "44-Capitol Hwy\/Mocks Crest", "dir_desc": "To St Johns", "type": "BUS", "stop_seq": 2300, "stop_id": 7751, "stop_name": "SW 6th & W Burnside", "jurisdic": "Portland", "zipcode": "97204", "frequent": "False" }, "geometry": { "type": "Point", "coordinates": [ -122.67641501100556, 45.5228802354845 ] } },
{ "type": "Feature", "properties": { "rte": 44, "dir": 1, "rte_desc": "44-Capitol Hwy\/Mocks Crest", "dir_desc": "To St Johns", "type": "BUS", "stop_seq": 4350, "stop_id": 6260, "stop_name": "N Willamette & Bryant", "jurisdic": "Portland", "zipcode": "97217", "frequent": "False" }, "geometry": { "type": "Point", "coordinates": [ -122.70312152847785, 45.573496554109916 ] } },
{ "type": "Feature", "properties": { "rte": 44, "dir": 1, "rte_desc": "44-Capitol Hwy\/Mocks Crest", "dir_desc": "To St Johns", "type": "BUS", "stop_seq": 4400, "stop_id": 6294, "stop_name": "N Willamette & Washburne", "jurisdic": "Portland", "zipcode": "97217", "frequent": "False" }, "geometry": { "type": "Point", "coordinates": [ -122.70568438896323, 45.574444337749618 ] } },
{ "type": "Feature", "properties": { "rte": 44, "dir": 1, "rte_desc": "44-Capitol Hwy\/Mocks Crest", "dir_desc": "To St Johns", "type": "BUS", "stop_seq": 2650, "stop_id": 11480, "stop_name": "N Williams & NE Weidler", "jurisdic": "Portland", "zipcode": "97232", "frequent": "False" }, "geometry": { "type": "Point", "coordinates": [ -122.66658605016163, 45.534238339941474 ] } }
]
}
