{
"type": "FeatureCollection",
"crs": { "type": "name", "properties": { "name": "urn:ogc:def:crs:OGC:1.3:CRS84" } },
"features": [
{ "type": "Feature", "properties": { "rte": 18, "dir": 0, "rte_desc": "18-Hillside", "dir_desc": "To Hillside and Providence Park", "type": "BUS", "stop_seq": 18, "stop_id": 9122, "stop_name": "SW 18th & Morrison", "jurisdic": "Portland", "zipcode": "97205", "frequent": "False" }, "geometry": { "type": "Point", "coordinates": [ -122.69012324120065, 45.521934674202519 ] } },
{ "type": "Feature", "properties": { "rte": 18, "dir": 0, "rte_desc": "18-Hillside", "dir_desc": "To Hillside and Providence Park", "type": "BUS", "stop_seq": 100, "stop_id": 735, "stop_name": "W Burnside & NW 19th", "jurisdic": "Portland", "zipcode": "97209", "frequent": "False" }, "geometry": { "type": "Point", "coordinates": [ -122.69006534110963, 45.523077149854721 ] } },
{ "type": "Feature", "properties": { "rte": 18, "dir": 0, "rte_desc": "18-Hillside", "dir_desc": "To Hillside and Providence Park", "type": "BUS", "stop_seq": 200, "stop_id": 742, "stop_name": "W Burnside & NW 20th Pl", "jurisdic": "Portland", "zipcode": "97209", "frequent": "False" }, "geometry": { "type": "Point", "coordinates": [ -122.69286627298091, 45.5232122609602 ] } },
{ "type": "Feature", "properties": { "rte": 18, "dir": 0, "rte_desc": "18-Hillside", "dir_desc": "To Hillside and Providence Park", "type": "BUS", "stop_seq": 250, "stop_id": 747, "stop_name": "W Burnside & NW King", "jurisdic": "Portland", "zipcode": "97210", "frequent": "False" }, "geometry": { "type": "Point", "coordinates": [ -122.69495392325524, 45.523316534050863 ] } },
{ "type": "Feature", "properties": { "rte": 18, "dir": 0, "rte_desc": "18-Hillside", "dir_desc": "To Hillside and Providence Park", "type": "BUS", "stop_seq": 300, "stop_id": 755, "stop_name": "W Burnside & NW 23rd", "jurisdic": "Portland", "zipcode": "97210", "frequent": "False" }, "geometry": { "type": "Point", "coordinates": [ -122.69799527421759, 45.523491402861175 ] } },
{ "type": "Feature", "properties": { "rte": 18, "dir": 0, "rte_desc": "18-Hillside", "dir_desc": "To Hillside and Providence Park", "type": "BUS", "stop_seq": 350, "stop_id": 9404, "stop_name": "NW 23rd Place & Westover", "jurisdic": "Portland", "zipcode": "97210", "frequent": "False" }, "geometry": { "type": "Point", "coordinates": [ -122.69940172755193, 45.524321997673717 ] } },
{ "type": "Feature", "properties": { "rte": 18, "dir": 0, "rte_desc": "18-Hillside", "dir_desc": "To Hillside and Providence Park", "type": "BUS", "stop_seq": 400, "stop_id": 10314, "stop_name": "2400 Block NW Westover", "jurisdic": "Portland", "zipcode": "97210", "frequent": "False" }, "geometry": { "type": "Point", "coordinates": [ -122.70179852791692, 45.527511791774543 ] } },
{ "type": "Feature", "properties": { "rte": 18, "dir": 0, "rte_desc": "18-Hillside", "dir_desc": "To Hillside and Providence Park", "type": "BUS", "stop_seq": 450, "stop_id": 9125, "stop_name": "NW 25th & Lovejoy", "jurisdic": "Portland", "zipcode": "97210", "frequent": "False" }, "geometry": { "type": "Point", "coordinates": [ -122.70257043932106, 45.529636023546182 ] } },
{ "type": "Feature", "properties": { "rte": 18, "dir": 0, "rte_desc": "18-Hillside", "dir_desc": "To Hillside and Providence Park", "type": "BUS", "stop_seq": 500, "stop_id": 9126, "stop_name": "NW Cornell & Marshall", "jurisdic": "Portland", "zipcode": "97210", "frequent": "False" }, "geometry": { "type": "Point", "coordinates": [ -122.70524196499856, 45.530413703611217 ] } },
{ "type": "Feature", "properties": { "rte": 18, "dir": 0, "rte_desc": "18-Hillside", "dir_desc": "To Hillside and Providence Park", "type": "BUS", "stop_seq": 550, "stop_id": 9127, "stop_name": "NW Cornell & Summit Ct", "jurisdic": "Portland", "zipcode": "97210", "frequent": "False" }, "geometry": { "type": "Point", "coordinates": [ -122.70736620750401, 45.531953150451869 ] } },
{ "type": "Feature", "properties": { "rte": 18, "dir": 0, "rte_desc": "18-Hillside", "dir_desc": "To Hillside and Providence Park", "type": "BUS", "stop_seq": 650, "stop_id": 9129, "stop_name": "NW Cornell & Westover", "jurisdic": "Portland", "zipcode": "97210", "frequent": "False" }, "geometry": { "type": "Point", "coordinates": [ -122.71065810750044, 45.532546612613004 ] } },
{ "type": "Feature", "properties": { "rte": 18, "dir": 0, "rte_desc": "18-Hillside", "dir_desc": "To Hillside and Providence Park", "type": "BUS", "stop_seq": 700, "stop_id": 9130, "stop_name": "NW Cumberland & Fairfax", "jurisdic": "Portland", "zipcode": "97210", "frequent": "False" }, "geometry": { "type": "Point", "coordinates": [ -122.70826436293309, 45.530491794448636 ] } },
{ "type": "Feature", "properties": { "rte": 18, "dir": 0, "rte_desc": "18-Hillside", "dir_desc": "To Hillside and Providence Park", "type": "BUS", "stop_seq": 750, "stop_id": 9214, "stop_name": "NW Cumberland & Culpepper", "jurisdic": "Portland", "zipcode": "97210", "frequent": "False" }, "geometry": { "type": "Point", "coordinates": [ -122.70816455364537, 45.529436266663467 ] } },
{ "type": "Feature", "properties": { "rte": 18, "dir": 0, "rte_desc": "18-Hillside", "dir_desc": "To Hillside and Providence Park", "type": "BUS", "stop_seq": 800, "stop_id": 9131, "stop_name": "NW Cumberland & Shenandoah", "jurisdic": "Portland", "zipcode": "97210", "frequent": "False" }, "geometry": { "type": "Point", "coordinates": [ -122.7092230993979, 45.530238157492093 ] } },
{ "type": "Feature", "properties": { "rte": 18, "dir": 0, "rte_desc": "18-Hillside", "dir_desc": "To Hillside and Providence Park", "type": "BUS", "stop_seq": 850, "stop_id": 9132, "stop_name": "NW Cumberland & Ariel", "jurisdic": "Portland", "zipcode": "97210", "frequent": "False" }, "geometry": { "type": "Point", "coordinates": [ -122.71118666629341, 45.529414094638852 ] } },
{ "type": "Feature", "properties": { "rte": 18, "dir": 0, "rte_desc": "18-Hillside", "dir_desc": "To Hillside and Providence Park", "type": "BUS", "stop_seq": 900, "stop_id": 9133, "stop_name": "NW Powhatan & Greenbrier Terr", "jurisdic": "Portland", "zipcode": "97210", "frequent": "False" }, "geometry": { "type": "Point", "coordinates": [ -122.71232990704046, 45.528864337487271 ] } },
{ "type": "Feature", "properties": { "rte": 18, "dir": 0, "rte_desc": "18-Hillside", "dir_desc": "To Hillside and Providence Park", "type": "BUS", "stop_seq": 1150, "stop_id": 8881, "stop_name": "W Burnside & NW Maywood Dr", "jurisdic": "Portland", "zipcode": "97210", "frequent": "False" }, "geometry": { "type": "Point", "coordinates": [ -122.70736953183034, 45.523870145610147 ] } },
{ "type": "Feature", "properties": { "rte": 18, "dir": 0, "rte_desc": "18-Hillside", "dir_desc": "To Hillside and Providence Park", "type": "BUS", "stop_seq": 1200, "stop_id": 8750, "stop_name": "W Burnside & NW Uptown Terrace", "jurisdic": "Portland", "zipcode": "97205", "frequent": "False" }, "geometry": { "type": "Point", "coordinates": [ -122.70329733589105, 45.524115753268063 ] } },
{ "type": "Feature", "properties": { "rte": 18, "dir": 0, "rte_desc": "18-Hillside", "dir_desc": "To Hillside and Providence Park", "type": "BUS", "stop_seq": 1250, "stop_id": 718, "stop_name": "W Burnside & SW St Clair", "jurisdic": "Portland", "zipcode": "97210", "frequent": "False" }, "geometry": { "type": "Point", "coordinates": [ -122.6969962182712, 45.523287559506471 ] } },
{ "type": "Feature", "properties": { "rte": 18, "dir": 0, "rte_desc": "18-Hillside", "dir_desc": "To Hillside and Providence Park", "type": "BUS", "stop_seq": 1300, "stop_id": 749, "stop_name": "W Burnside & SW 21st", "jurisdic": "Portland", "zipcode": "97210", "frequent": "False" }, "geometry": { "type": "Point", "coordinates": [ -122.6944886078537, 45.523145449495928 ] } },
{ "type": "Feature", "properties": { "rte": 18, "dir": 0, "rte_desc": "18-Hillside", "dir_desc": "To Hillside and Providence Park", "type": "BUS", "stop_seq": 1350, "stop_id": 8511, "stop_name": "W Burnside & SW 20th", "jurisdic": "Portland", "zipcode": "97209", "frequent": "False" }, "geometry": { "type": "Point", "coordinates": [ -122.69256884204411, 45.523058251500288 ] } },
{ "type": "Feature", "properties": { "rte": 18, "dir": 0, "rte_desc": "18-Hillside", "dir_desc": "To Hillside and Providence Park", "type": "BUS", "stop_seq": 1400, "stop_id": 6911, "stop_name": "SW 18th & Morrison", "jurisdic": "Portland", "zipcode": "97205", "frequent": "False" }, "geometry": { "type": "Point", "coordinates": [ -122.69043311158511, 45.521901477853078 ] } },
{ "type": "Feature", "properties": { "rte": 18, "dir": 0, "rte_desc": "18-Hillside", "dir_desc": "To Hillside and Providence Park", "type": "BUS", "stop_seq": 950, "stop_id": 9135, "stop_name": "NW Macleay & Hermosa", "jurisdic": "Portland", "zipcode": "97210", "frequent": "False" }, "geometry": { "type": "Point", "coordinates": [ -122.71112367837996, 45.526695400382984 ] } },
{ "type": "Feature", "properties": { "rte": 18, "dir": 0, "rte_desc": "18-Hillside", "dir_desc": "To Hillside and Providence Park", "type": "BUS", "stop_seq": 1000, "stop_id": 9136, "stop_name": "NW Macleay & Lomita Terrace", "jurisdic": "Portland", "zipcode": "97210", "frequent": "False" }, "geometry": { "type": "Point", "coordinates": [ -122.70698828100696, 45.526312878439775 ] } },
{ "type": "Feature", "properties": { "rte": 18, "dir": 0, "rte_desc": "18-Hillside", "dir_desc": "To Hillside and Providence Park", "type": "BUS", "stop_seq": 1050, "stop_id": 9137, "stop_name": "NW Macleay & Beuhla Vista", "jurisdic": "Portland", "zipcode": "97210", "frequent": "False" }, "geometry": { "type": "Point", "coordinates": [ -122.70451547400538, 45.525577522246877 ] } },
{ "type": "Feature", "properties": { "rte": 18, "dir": 0, "rte_desc": "18-Hillside", "dir_desc": "To Hillside and Providence Park", "type": "BUS", "stop_seq": 1100, "stop_id": 9139, "stop_name": "NW Macleay & W Burnside", "jurisdic": "Portland", "zipcode": "97210", "frequent": "False" }, "geometry": { "type": "Point", "coordinates": [ -122.70989632451872, 45.523558180176103 ] } }
]
}
